state,district,lat,lon,historical_crops,rice_yield_efficiency,wheat_yield_efficiency,maize_yield_efficiency,sugarcane_yield_efficiency,cotton_yield_efficiency,groundnut_yield_efficiency,chickpea_yield_efficiency
Chhattisgarh,Durg,21.19,81.2849,"rice,pearl_millet,chickpea,groundnut,sugarcane",1.4767043887729834,1.2003248591928484,1.8010974416489594,11.136011639664884,0.0,1.2676032789707528,0.0
Chhattisgarh,Bastar,21.1532,82.3168,"rice,chickpea,groundnut,sugarcane",1.4767043887729834,1.2003248591928484,1.8010974416489594,11.136011639664884,0.0,1.2676032789707528,0.0
Chhattisgarh,Raipur,21.2514,81.6296,"rice,pearl_millet,chickpea,groundnut,sugarcane",1.4767043887729834,1.2003248591928484,1.8010974416489594,11.136011639664884,0.0,1.2676032789707528,0.0
Chhattisgarh,Bilaspur,22.0796,82.1391,"rice,pearl_millet,chickpea,groundnut,sugarcane",1.4767043887729834,1.2003248591928484,1.8010974416489594,11.136011639664884,0.0,1.2676032789707528,0.0
Chhattisgarh,Raigarh,21.5107,81.9648,"rice,pearl_millet,chickpea,groundnut,sugarcane",1.4767043887729834,1.2003248591928484,1.8010974416489594,11.136011639664884,0.0,1.2676032789707528,0.0
Chhattisgarh,Surguja,20.9347,81.5221,"rice,pearl_millet,chickpea,groundnut,sugarcane",1.4767043887729834,1.2003248591928484,1.8010974416489594,11.136011639664884,0.0,1.2676032789707528,0.0
Madhya Pradesh,Jabalpur,22.5315,79.0231,"rice,pearl_millet,chickpea,groundnut,sugarcane",1.3164301673944963,2.476739864994916,2.1049222168891375,44.63208814725796,0.0,1.2705257216970058,0.0
Madhya Pradesh,Balaghat,23.0745,78.865,"rice,pearl_millet,chickpea,groundnut,sugarcane",1.3164301673944963,2.476739864994916,2.1049222168891375,44.63208814725796,0.0,1.2705257216970058,0.0
Madhya Pradesh,Chhindwara,22.494,79.1268,"rice,pearl_millet,chickpea,groundnut,sugarcane",1.3164301673944963,2.476739864994916,2.1049222168891375,44.63208814725796,0.0,1.2705257216970058,0.0
Madhya Pradesh,Narsinghpur,23.3058,78.3692,"rice,pearl_millet,chickpea,groundnut,sugarcane",1.3164301673944963,2.476739864994916,2.1049222168891375,44.63208814725796,0.0,1.2705257216970058,0.0
Madhya Pradesh,Seoni,22.6552,78.3403,"rice,pearl_millet,chickpea,groundnut,sugarcane",1.3164301673944963,2.476739864994916,2.1049222168891375,44.63208814725796,0.0,1.2705257216970058,0.0
Madhya Pradesh,Mandla,22.7776,78.6817,"rice,chickpea,groundnut,sugarcane",1.3164301673944963,2.476739864994916,2.1049222168891375,44.63208814725796,0.0,1.2705257216970058,0.0
Madhya Pradesh,Sagar,22.9053,78.4481,"rice,pearl_millet,chickpea,groundnut,sugarcane",1.3164301673944963,2.476739864994916,2.1049222168891375,44.63208814725796,0.0,1.2705257216970058,0.0
Madhya Pradesh,Damoh,23.0853,78.2964,"rice,pearl_millet,chickpea,groundnut,sugarcane",1.3164301673944963,2.476739864994916,2.1049222168891375,44.63208814725796,0.0,1.2705257216970058,0.0
Madhya Pradesh,Tikamgarh,22.7655,78.5233,"rice,pearl_millet,chickpea,groundnut,sugarcane",1.3164301673944963,2.476739864994916,2.1049222168891375,44.63208814725796,0.0,1.2705257216970058,0.0
Madhya Pradesh,Chhatarpur,22.9295,78.9421,"rice,pearl_millet,chickpea,groundnut,sugarcane",1.3164301673944963,2.476739864994916,2.1049222168891375,44.63208814725796,0.0,1.2705257216970058,0.0
Madhya Pradesh,Panna,22.6731,78.6711,"rice,pearl_millet,chickpea,groundnut,sugarcane",1.3164301673944963,2.476739864994916,2.1049222168891375,44.63208814725796,0.0,1.2705257216970058,0.0
Madhya Pradesh,Rewa,23.0658,78.2034,"rice,pearl_millet,chickpea,groundnut,sugarcane",1.3164301673944963,2.476739864994916,2.1049222168891375,44.63208814725796,0.0,1.2705257216970058,0.0
Madhya Pradesh,Sidhi,23.0809,78.3274,"rice,pearl_millet,chickpea,groundnut,sugarcane",1.3164301673944963,2.476739864994916,2.1049222168891375,44.63208814725796,0.0,1.2705257216970058,0.0
Madhya Pradesh,Satna,22.5385,79.1058,"rice,pearl_millet,chickpea,groundnut,sugarcane",1.3164301673944963,2.476739864994916,2.1049222168891375,44.63208814725796,0.0,1.2705257216970058,0.0
Madhya Pradesh,Shahdol,23.439,78.9653,"rice,pearl_millet,chickpea,groundnut,sugarcane",1.3164301673944963,2.476739864994916,2.1049222168891375,44.63208814725796,0.0,1.2705257216970058,0.0
Madhya Pradesh,Gwalior,26.2183,78.1828,"rice,pearl_millet,chickpea,groundnut,sugarcane",1.3164301673944963,2.476739864994916,2.1049222168891375,44.63208814725796,0.0,1.2705257216970058,0.0
Madhya Pradesh,Shivpuri,22.778,78.2546,"rice,pearl_millet,chickpea,groundnut,sugarcane",1.3164301673944963,2.476739864994916,2.1049222168891375,44.63208814725796,0.0,1.2705257216970058,0.0
Madhya Pradesh,Guna,23.1576,78.5971,"rice,pearl_millet,chickpea,groundnut,sugarcane",1.3164301673944963,2.476739864994916,2.1049222168891375,44.63208814725796,0.0,1.2705257216970058,0.0
Madhya Pradesh,Datia,22.5954,78.6521,"rice,pearl_millet,chickpea,groundnut,sugarcane",1.3164301673944963,2.476739864994916,2.1049222168891375,44.63208814725796,0.0,1.2705257216970058,0.0
Madhya Pradesh,Morena,22.5078,79.0662,"rice,pearl_millet,chickpea,groundnut,sugarcane",1.3164301673944963,2.476739864994916,2.1049222168891375,44.63208814725796,0.0,1.2705257216970058,0.0
Madhya Pradesh,Bhind,22.7322,78.8194,"rice,pearl_millet,chickpea,groundnut,sugarcane",1.3164301673944963,2.476739864994916,2.1049222168891375,44.63208814725796,0.0,1.2705257216970058,0.0
Madhya Pradesh,Indore,22.7196,75.8577,"rice,pearl_millet,chickpea,groundnut,sugarcane",1.3164301673944963,2.476739864994916,2.1049222168891375,44.63208814725796,0.0,1.2705257216970058,0.0
Madhya Pradesh,Ratlam,22.7851,78.677,"rice,pearl_millet,chickpea,groundnut,sugarcane",1.3164301673944963,2.476739864994916,2.1049222168891375,44.63208814725796,0.0,1.2705257216970058,0.0
Madhya Pradesh,Ujjain,23.0201,78.3418,"rice,pearl_millet,chickpea,groundnut,sugarcane",1.3164301673944963,2.476739864994916,2.1049222168891375,44.63208814725796,0.0,1.2705257216970058,0.0
Madhya Pradesh,Mandsaur,23.443,78.932,"rice,pearl_millet,chickpea,groundnut,sugarcane",1.3164301673944963,2.476739864994916,2.1049222168891375,44.63208814725796,0.0,1.2705257216970058,0.0
Madhya Pradesh,Dewas,23.4129,79.0517,"rice,pearl_millet,chickpea,groundnut,sugarcane",1.3164301673944963,2.476739864994916,2.1049222168891375,44.63208814725796,0.0,1.2705257216970058,0.0
Madhya Pradesh,Dhar,23.0713,79.0788,"rice,pearl_millet,chickpea,groundnut,sugarcane",1.3164301673944963,2.476739864994916,2.1049222168891375,44.63208814725796,0.0,1.2705257216970058,0.0
Madhya Pradesh,Jhabua,22.5619,78.3529,"rice,pearl_millet,chickpea,groundnut,sugarcane",1.3164301673944963,2.476739864994916,2.1049222168891375,44.63208814725796,0.0,1.2705257216970058,0.0
Madhya Pradesh,Khargone,22.5186,78.4822,"rice,pearl_millet,chickpea,groundnut,sugarcane",1.3164301673944963,2.476739864994916,2.1049222168891375,44.63208814725796,0.0,1.2705257216970058,0.0
Madhya Pradesh,Khandwa,22.8621,78.4282,"rice,pearl_millet,chickpea,groundnut,sugarcane",1.3164301673944963,2.476739864994916,2.1049222168891375,44.63208814725796,0.0,1.2705257216970058,0.0
Madhya Pradesh,Sehore,23.3021,78.5137,"rice,pearl_millet,chickpea,groundnut,sugarcane",1.3164301673944963,2.476739864994916,2.1049222168891375,44.63208814725796,0.0,1.2705257216970058,0.0
Madhya Pradesh,Raisen,22.7543,78.6996,"rice,pearl_millet,chickpea,groundnut,sugarcane",1.3164301673944963,2.476739864994916,2.1049222168891375,44.63208814725796,0.0,1.2705257216970058,0.0
Madhya Pradesh,Vidisha,22.6143,78.9591,"rice,pearl_millet,chickpea,groundnut,sugarcane",1.3164301673944963,2.476739864994916,2.1049222168891375,44.63208814725796,0.0,1.2705257216970058,0.0
Madhya Pradesh,Betul,22.548,79.1438,"rice,pearl_millet,chickpea,groundnut,sugarcane",1.3164301673944963,2.476739864994916,2.1049222168891375,44.63208814725796,0.0,1.2705257216970058,0.0
Madhya Pradesh,Rajgarh,23.2456,78.3556,"rice,pearl_millet,chickpea,groundnut,sugarcane",1.3164301673944963,2.476739864994916,2.1049222168891375,44.63208814725796,0.0,1.2705257216970058,0.0
Madhya Pradesh,Shajapur,22.4789,78.9724,"rice,pearl_millet,chickpea,groundnut,sugarcane",1.3164301673944963,2.476739864994916,2.1049222168891375,44.63208814725796,0.0,1.2705257216970058,0.0
Madhya Pradesh,Hoshangabad,23.1803,78.8859,"rice,pearl_millet,chickpea,groundnut,sugarcane",1.3164301673944963,2.476739864994916,2.1049222168891375,44.63208814725796,0.0,1.2705257216970058,0.0
Andhra Pradesh,Srikakulam,16.1842,79.314,"rice,pearl_millet,chickpea,groundnut,sugarcane",3.106414190105651,0.8539922401470288,4.376945286663845,77.06632721732613,0.0,0.819369863585075,0.0
Andhra Pradesh,Visakhapatnam,15.7714,79.3559,"rice,pearl_millet,chickpea,groundnut,sugarcane",3.106414190105651,0.8539922401470288,4.376945286663845,77.06632721732613,0.0,0.819369863585075,0.0
Andhra Pradesh,East Godavari,16.276,79.8633,"rice,pearl_millet,chickpea,groundnut,sugarcane",3.106414190105651,0.8539922401470288,4.376945286663845,77.06632721732613,0.0,0.819369863585075,0.0
Andhra Pradesh,West Godavari,15.7438,79.3036,"rice,pearl_millet,chickpea,groundnut,sugarcane",3.106414190105651,0.8539922401470288,4.376945286663845,77.06632721732613,0.0,0.819369863585075,0.0
Andhra Pradesh,Krishna,15.7239,79.5652,"rice,pearl_millet,chickpea,groundnut,sugarcane",3.106414190105651,0.8539922401470288,4.376945286663845,77.06632721732613,0.0,0.819369863585075,0.0
Andhra Pradesh,Guntur,16.3067,80.4365,"rice,pearl_millet,chickpea,groundnut,sugarcane",3.106414190105651,0.8539922401470288,4.376945286663845,77.06632721732613,0.0,0.819369863585075,0.0
Andhra Pradesh,S.P.S. Nellore,16.1425,79.8776,"rice,pearl_millet,chickpea,groundnut,sugarcane",3.106414190105651,0.8539922401470288,4.376945286663845,77.06632721732613,0.0,0.819369863585075,0.0
Andhra Pradesh,Kurnool,16.3001,79.7122,"rice,pearl_millet,chickpea,groundnut,sugarcane",3.106414190105651,0.8539922401470288,4.376945286663845,77.06632721732613,0.0,0.819369863585075,0.0
Andhra Pradesh,Anantapur,15.5325,79.9532,"rice,pearl_millet,chickpea,groundnut,sugarcane",3.106414190105651,0.8539922401470288,4.376945286663845,77.06632721732613,0.0,0.819369863585075,0.0
Andhra Pradesh,Kadapa YSR,16.1737,79.8013,"rice,pearl_millet,chickpea,groundnut,sugarcane",3.106414190105651,0.8539922401470288,4.376945286663845,77.06632721732613,0.0,0.819369863585075,0.0
Andhra Pradesh,Chittoor,16.1839,79.7338,"rice,pearl_millet,chickpea,groundnut,sugarcane",3.106414190105651,0.8539922401470288,4.376945286663845,77.06632721732613,0.0,0.819369863585075,0.0
Telangana,Hyderabad,17.385,78.4867,rice,3.403559318490957,1.5997220859898642,4.08624690864526,78.21674259634305,0.0,2.0213998861178397,0.0
Telangana,Nizamabad,18.1351,78.9468,"rice,pearl_millet,chickpea,groundnut,sugarcane",3.403559318490957,1.5997220859898642,4.08624690864526,78.21674259634305,0.0,2.0213998861178397,0.0
Telangana,Medak,17.6378,78.6272,"rice,pearl_millet,chickpea,groundnut,sugarcane",3.403559318490957,1.5997220859898642,4.08624690864526,78.21674259634305,0.0,2.0213998861178397,0.0
Telangana,Mahabubnagar,17.6438,79.1557,"rice,pearl_millet,chickpea,groundnut,sugarcane",3.403559318490957,1.5997220859898642,4.08624690864526,78.21674259634305,0.0,2.0213998861178397,0.0
Telangana,Nalgonda,17.9268,79.0279,"rice,pearl_millet,chickpea,groundnut,sugarcane",3.403559318490957,1.5997220859898642,4.08624690864526,78.21674259634305,0.0,2.0213998861178397,0.0
Telangana,Warangal,17.9689,79.5941,"rice,pearl_millet,chickpea,groundnut,sugarcane",3.403559318490957,1.5997220859898642,4.08624690864526,78.21674259634305,0.0,2.0213998861178397,0.0
Telangana,Khammam,18.52,78.7686,"rice,pearl_millet,chickpea,groundnut,sugarcane",3.403559318490957,1.5997220859898642,4.08624690864526,78.21674259634305,0.0,2.0213998861178397,0.0
Telangana,Karimnagar,18.4386,79.1288,"rice,pearl_millet,chickpea,groundnut,sugarcane",3.403559318490957,1.5997220859898642,4.08624690864526,78.21674259634305,0.0,2.0213998861178397,0.0
Telangana,Adilabad,18.0228,79.2749,"rice,pearl_millet,chickpea,groundnut,sugarcane",3.403559318490957,1.5997220859898642,4.08624690864526,78.21674259634305,0.0,2.0213998861178397,0.0
Karnataka,Kolar,15.0461,75.2909,"rice,pearl_millet,chickpea,groundnut,sugarcane",2.694419359994436,0.8834127048459898,2.8972899753660815,87.89801544518777,0.0,0.7150491433005693,0.0
Karnataka,Tumkur,15.1071,75.3751,"rice,pearl_millet,chickpea,groundnut,sugarcane",2.694419359994436,0.8834127048459898,2.8972899753660815,87.89801544518777,0.0,0.7150491433005693,0.0
Karnataka,Mysore,12.2958,76.6394,"rice,pearl_millet,chickpea,groundnut,sugarcane",2.694419359994436,0.8834127048459898,2.8972899753660815,87.89801544518777,0.0,0.7150491433005693,0.0
Karnataka,Mandya,15.747,76.022,"rice,pearl_millet,chickpea,groundnut,sugarcane",2.694419359994436,0.8834127048459898,2.8972899753660815,87.89801544518777,0.0,0.7150491433005693,0.0
Karnataka,Hassan,15.4507,76.0854,"rice,pearl_millet,chickpea,groundnut,sugarcane",2.694419359994436,0.8834127048459898,2.8972899753660815,87.89801544518777,0.0,0.7150491433005693,0.0
Karnataka,Shimoge,15.621,75.4005,"rice,pearl_millet,chickpea,groundnut,sugarcane",2.694419359994436,0.8834127048459898,2.8972899753660815,87.89801544518777,0.0,0.7150491433005693,0.0
Karnataka,Chickmagalur,15.7099,75.7532,"rice,pearl_millet,chickpea,groundnut,sugarcane",2.694419359994436,0.8834127048459898,2.8972899753660815,87.89801544518777,0.0,0.7150491433005693,0.0
Karnataka,Chitradurga,15.6247,76.11,"rice,pearl_millet,chickpea,groundnut,sugarcane",2.694419359994436,0.8834127048459898,2.8972899753660815,87.89801544518777,0.0,0.7150491433005693,0.0
Karnataka,Bellary,15.1353,75.324,"rice,pearl_millet,chickpea,groundnut,sugarcane",2.694419359994436,0.8834127048459898,2.8972899753660815,87.89801544518777,0.0,0.7150491433005693,0.0
Karnataka,Dharwad,15.0452,75.641,"rice,pearl_millet,chickpea,groundnut,sugarcane",2.694419359994436,0.8834127048459898,2.8972899753660815,87.89801544518777,0.0,0.7150491433005693,0.0
Karnataka,Belgaum,15.8497,74.4977,"rice,pearl_millet,chickpea,groundnut,sugarcane",2.694419359994436,0.8834127048459898,2.8972899753660815,87.89801544518777,0.0,0.7150491433005693,0.0
Karnataka,Bijapur,16.8302,75.71,"rice,pearl_millet,chickpea,groundnut,sugarcane",2.694419359994436,0.8834127048459898,2.8972899753660815,87.89801544518777,0.0,0.7150491433005693,0.0
Karnataka,Bidar,15.6353,76.0746,"rice,pearl_millet,chickpea,groundnut,sugarcane",2.694419359994436,0.8834127048459898,2.8972899753660815,87.89801544518777,0.0,0.7150491433005693,0.0
Karnataka,Raichur,14.8243,75.7246,"rice,pearl_millet,chickpea,groundnut,sugarcane",2.694419359994436,0.8834127048459898,2.8972899753660815,87.89801544518777,0.0,0.7150491433005693,0.0
Karnataka,Gulbarga,17.3297,76.8343,"rice,pearl_millet,chickpea,groundnut,sugarcane",2.694419359994436,0.8834127048459898,2.8972899753660815,87.89801544518777,0.0,0.7150491433005693,0.0
Karnataka,Dakshina Kannada,15.2347,75.436,"rice,groundnut,sugarcane",2.694419359994436,0.8834127048459898,2.8972899753660815,87.89801544518777,0.0,0.7150491433005693,0.0
Karnataka,Uttara Kannada,14.9372,75.5515,"rice,chickpea,groundnut,sugarcane",2.694419359994436,0.8834127048459898,2.8972899753660815,87.89801544518777,0.0,0.7150491433005693,0.0
Karnataka,Kodagu,15.7602,75.5371,"rice,chickpea,groundnut,sugarcane",2.694419359994436,0.8834127048459898,2.8972899753660815,87.89801544518777,0.0,0.7150491433005693,0.0
Tamil Nadu,Chengalpattu MGR / Kancheepuram,11.1459,78.8599,"rice,pearl_millet,chickpea,groundnut,sugarcane",3.2370418456349697,0.0,4.9041107370019486,106.6075500034572,0.0,2.0547826788130386,0.0
Tamil Nadu,South Arcot / Cuddalore,10.9907,79.1287,"rice,pearl_millet,chickpea,groundnut,sugarcane",3.2370418456349697,0.0,4.9041107370019486,106.6075500034572,0.0,2.0547826788130386,0.0
Tamil Nadu,North Arcot / Vellore,11.5895,78.4087,"rice,pearl_millet,chickpea,groundnut,sugarcane",3.2370418456349697,0.0,4.9041107370019486,106.6075500034572,0.0,2.0547826788130386,0.0
Tamil Nadu,Salem,11.6643,78.146,"rice,pearl_millet,chickpea,groundnut,sugarcane",3.2370418456349697,0.0,4.9041107370019486,106.6075500034572,0.0,2.0547826788130386,0.0
Tamil Nadu,Coimbatore,11.0168,76.9558,"rice,pearl_millet,chickpea,groundnut,sugarcane",3.2370418456349697,0.0,4.9041107370019486,106.6075500034572,0.0,2.0547826788130386,0.0
Tamil Nadu,Tiruchirapalli / Trichy,11.1243,78.4578,"rice,pearl_millet,chickpea,groundnut,sugarcane",3.2370418456349697,0.0,4.9041107370019486,106.6075500034572,0.0,2.0547826788130386,0.0
Tamil Nadu,Thanjavur,10.9119,78.1938,"rice,pearl_millet,chickpea,groundnut,sugarcane",3.2370418456349697,0.0,4.9041107370019486,106.6075500034572,0.0,2.0547826788130386,0.0
Tamil Nadu,Madurai,9.9252,78.1198,"rice,pearl_millet,chickpea,groundnut,sugarcane",3.2370418456349697,0.0,4.9041107370019486,106.6075500034572,0.0,2.0547826788130386,0.0
Tamil Nadu,Ramananthapuram,11.2367,78.6596,"rice,pearl_millet,chickpea,groundnut,sugarcane",3.2370418456349697,0.0,4.9041107370019486,106.6075500034572,0.0,2.0547826788130386,0.0
Tamil Nadu,Thirunelveli,10.6786,78.4355,"rice,pearl_millet,chickpea,groundnut,sugarcane",3.2370418456349697,0.0,4.9041107370019486,106.6075500034572,0.0,2.0547826788130386,0.0
Tamil Nadu,The Nilgiris,11.5354,78.3965,"rice,pearl_millet,groundnut,sugarcane",3.2370418456349697,0.0,4.9041107370019486,106.6075500034572,0.0,2.0547826788130386,0.0
Tamil Nadu,Kanyakumari,10.772,78.6464,"rice,groundnut,sugarcane",3.2370418456349697,0.0,4.9041107370019486,106.6075500034572,0.0,2.0547826788130386,0.0
Maharashtra,Thane,19.2183,72.9781,"rice,chickpea,groundnut",1.7596648971494138,1.4753457609261522,2.2886437053711397,81.27973521946655,0.0,1.1126249175202167,0.0
Maharashtra,Raigad,20.2372,75.456,"rice,chickpea,groundnut",1.7596648971494138,1.4753457609261522,2.2886437053711397,81.27973521946655,0.0,1.1126249175202167,0.0
Maharashtra,Ratnagiri,19.9236,75.9755,"rice,chickpea,groundnut",1.7596648971494138,1.4753457609261522,2.2886437053711397,81.27973521946655,0.0,1.1126249175202167,0.0
Maharashtra,Nasik,19.4891,75.9421,"rice,pearl_millet,chickpea,groundnut,sugarcane",1.7596648971494138,1.4753457609261522,2.2886437053711397,81.27973521946655,0.0,1.1126249175202167,0.0
Maharashtra,Dhule,19.6193,75.8462,"rice,pearl_millet,chickpea,groundnut,sugarcane",1.7596648971494138,1.4753457609261522,2.2886437053711397,81.27973521946655,0.0,1.1126249175202167,0.0
Maharashtra,Jalgaon,19.885,75.7497,"rice,pearl_millet,chickpea,groundnut,sugarcane",1.7596648971494138,1.4753457609261522,2.2886437053711397,81.27973521946655,0.0,1.1126249175202167,0.0
Maharashtra,Ahmednagar,19.3418,76.0492,"rice,pearl_millet,chickpea,groundnut,sugarcane",1.7596648971494138,1.4753457609261522,2.2886437053711397,81.27973521946655,0.0,1.1126249175202167,0.0
Maharashtra,Pune,18.5204,73.8567,"rice,pearl_millet,chickpea,groundnut,sugarcane",1.7596648971494138,1.4753457609261522,2.2886437053711397,81.27973521946655,0.0,1.1126249175202167,0.0
Maharashtra,Satara,19.5723,75.4004,"rice,pearl_millet,chickpea,groundnut,sugarcane",1.7596648971494138,1.4753457609261522,2.2886437053711397,81.27973521946655,0.0,1.1126249175202167,0.0
Maharashtra,Sangli,16.8524,74.5815,"rice,pearl_millet,chickpea,groundnut,sugarcane",1.7596648971494138,1.4753457609261522,2.2886437053711397,81.27973521946655,0.0,1.1126249175202167,0.0
Maharashtra,Solapur,17.6599,75.9064,"rice,pearl_millet,chickpea,groundnut,sugarcane",1.7596648971494138,1.4753457609261522,2.2886437053711397,81.27973521946655,0.0,1.1126249175202167,0.0
Maharashtra,Kolhapur,16.705,74.2433,"rice,pearl_millet,chickpea,groundnut,sugarcane",1.7596648971494138,1.4753457609261522,2.2886437053711397,81.27973521946655,0.0,1.1126249175202167,0.0
Maharashtra,Aurangabad,19.8762,75.3433,"rice,pearl_millet,chickpea,groundnut,sugarcane",1.7596648971494138,1.4753457609261522,2.2886437053711397,81.27973521946655,0.0,1.1126249175202167,0.0
Maharashtra,Parbhani,19.2923,75.8048,"rice,pearl_millet,chickpea,groundnut,sugarcane",1.7596648971494138,1.4753457609261522,2.2886437053711397,81.27973521946655,0.0,1.1126249175202167,0.0
Maharashtra,Beed,19.9291,75.2305,"rice,pearl_millet,chickpea,groundnut,sugarcane",1.7596648971494138,1.4753457609261522,2.2886437053711397,81.27973521946655,0.0,1.1126249175202167,0.0
Maharashtra,Nanded,19.7636,75.4404,"rice,pearl_millet,chickpea,groundnut,sugarcane",1.7596648971494138,1.4753457609261522,2.2886437053711397,81.27973521946655,0.0,1.1126249175202167,0.0
Maharashtra,Osmanabad,19.8967,75.3883,"rice,pearl_millet,chickpea,groundnut,sugarcane",1.7596648971494138,1.4753457609261522,2.2886437053711397,81.27973521946655,0.0,1.1126249175202167,0.0
Maharashtra,Buldhana,19.9424,75.6006,"rice,pearl_millet,chickpea,groundnut,sugarcane",1.7596648971494138,1.4753457609261522,2.2886437053711397,81.27973521946655,0.0,1.1126249175202167,0.0
Maharashtra,Akola,20.1882,75.3514,"rice,pearl_millet,chickpea,groundnut,sugarcane",1.7596648971494138,1.4753457609261522,2.2886437053711397,81.27973521946655,0.0,1.1126249175202167,0.0
Maharashtra,Amarawati,19.5926,75.3274,"rice,pearl_millet,chickpea,groundnut,sugarcane",1.7596648971494138,1.4753457609261522,2.2886437053711397,81.27973521946655,0.0,1.1126249175202167,0.0
Maharashtra,Yeotmal,20.1762,76.0912,"rice,pearl_millet,chickpea,groundnut,sugarcane",1.7596648971494138,1.4753457609261522,2.2886437053711397,81.27973521946655,0.0,1.1126249175202167,0.0
Maharashtra,Wardha,19.5094,75.8739,"rice,pearl_millet,chickpea,groundnut,sugarcane",1.7596648971494138,1.4753457609261522,2.2886437053711397,81.27973521946655,0.0,1.1126249175202167,0.0
Maharashtra,Nagpur,21.1458,79.0882,"rice,pearl_millet,chickpea,groundnut,sugarcane",1.7596648971494138,1.4753457609261522,2.2886437053711397,81.27973521946655,0.0,1.1126249175202167,0.0
Maharashtra,Bhandara,20.0687,75.7691,"rice,chickpea,groundnut,sugarcane",1.7596648971494138,1.4753457609261522,2.2886437053711397,81.27973521946655,0.0,1.1126249175202167,0.0
Maharashtra,Chandrapur,19.7812,75.4558,"rice,pearl_millet,chickpea,groundnut,sugarcane",1.7596648971494138,1.4753457609261522,2.2886437053711397,81.27973521946655,0.0,1.1126249175202167,0.0
Gujarat,Ahmedabad,23.0225,72.5714,"rice,pearl_millet,chickpea,groundnut,sugarcane",1.913217323168899,2.7930742134338216,1.5020852046900137,68.27796707160732,0.0,1.4768894272377961,0.0
Gujarat,Amreli,22.6156,72.9686,"rice,pearl_millet,chickpea,groundnut,sugarcane",1.913217323168899,2.7930742134338216,1.5020852046900137,68.27796707160732,0.0,1.4768894272377961,0.0
Gujarat,Banaskantha,23.4229,72.7045,"rice,pearl_millet,chickpea,groundnut,sugarcane",1.913217323168899,2.7930742134338216,1.5020852046900137,68.27796707160732,0.0,1.4768894272377961,0.0
Gujarat,Bharuch,22.8615,72.4206,"rice,pearl_millet,chickpea,groundnut,sugarcane",1.913217323168899,2.7930742134338216,1.5020852046900137,68.27796707160732,0.0,1.4768894272377961,0.0
Gujarat,Vadodara,22.3072,73.1812,"rice,pearl_millet,chickpea,groundnut,sugarcane",1.913217323168899,2.7930742134338216,1.5020852046900137,68.27796707160732,0.0,1.4768894272377961,0.0
Gujarat,Bhavnagar,23.2485,72.9685,"rice,pearl_millet,chickpea,groundnut,sugarcane",1.913217323168899,2.7930742134338216,1.5020852046900137,68.27796707160732,0.0,1.4768894272377961,0.0
Gujarat,Valsad,23.4096,72.8513,"rice,chickpea,groundnut,sugarcane",1.913217323168899,2.7930742134338216,1.5020852046900137,68.27796707160732,0.0,1.4768894272377961,0.0
Gujarat,Dangs,23.1645,72.1555,"rice,chickpea,groundnut,sugarcane",1.913217323168899,2.7930742134338216,1.5020852046900137,68.27796707160732,0.0,1.4768894272377961,0.0
Gujarat,Jamnagar,22.6841,72.97,"rice,pearl_millet,chickpea,groundnut,sugarcane",1.913217323168899,2.7930742134338216,1.5020852046900137,68.27796707160732,0.0,1.4768894272377961,0.0
Gujarat,Junagadh,23.1289,72.0806,"rice,pearl_millet,chickpea,groundnut,sugarcane",1.913217323168899,2.7930742134338216,1.5020852046900137,68.27796707160732,0.0,1.4768894272377961,0.0
Gujarat,Kheda,22.624,72.7349,"rice,pearl_millet,chickpea,groundnut,sugarcane",1.913217323168899,2.7930742134338216,1.5020852046900137,68.27796707160732,0.0,1.4768894272377961,0.0
Gujarat,Kutch,22.5276,72.2322,"pearl_millet,chickpea,groundnut,sugarcane",1.913217323168899,2.7930742134338216,1.5020852046900137,68.27796707160732,0.0,1.4768894272377961,0.0
Gujarat,Mehsana,23.0712,72.7633,"rice,pearl_millet,chickpea,groundnut",1.913217323168899,2.7930742134338216,1.5020852046900137,68.27796707160732,0.0,1.4768894272377961,0.0
Gujarat,Panchmahal,23.1745,72.2957,"rice,pearl_millet,chickpea,groundnut,sugarcane",1.913217323168899,2.7930742134338216,1.5020852046900137,68.27796707160732,0.0,1.4768894272377961,0.0
Gujarat,Rajkot,23.2347,72.3086,"rice,pearl_millet,chickpea,groundnut,sugarcane",1.913217323168899,2.7930742134338216,1.5020852046900137,68.27796707160732,0.0,1.4768894272377961,0.0
Gujarat,Sabarkantha,22.8479,72.8179,"rice,pearl_millet,chickpea,groundnut,sugarcane",1.913217323168899,2.7930742134338216,1.5020852046900137,68.27796707160732,0.0,1.4768894272377961,0.0
Gujarat,Surat,21.1702,72.8311,"rice,pearl_millet,chickpea,groundnut,sugarcane",1.913217323168899,2.7930742134338216,1.5020852046900137,68.27796707160732,0.0,1.4768894272377961,0.0
Gujarat,Surendranagar,23.1721,72.9206,"rice,pearl_millet,chickpea,groundnut,sugarcane",1.913217323168899,2.7930742134338216,1.5020852046900137,68.27796707160732,0.0,1.4768894272377961,0.0
Rajasthan,Ajmer,27.1814,74.2862,"rice,pearl_millet,chickpea,groundnut,sugarcane",0.0,0.0,0.0,0.0,0.0,0.0,0.0
Rajasthan,Alwar,26.6175,74.0856,"rice,pearl_millet,chickpea,groundnut,sugarcane",0.0,0.0,0.0,0.0,0.0,0.0,0.0
Rajasthan,Banswara,26.789,73.9619,"rice,pearl_millet,chickpea,groundnut,sugarcane",0.0,0.0,0.0,0.0,0.0,0.0,0.0
Rajasthan,Barmer,27.4968,74.111,"pearl_millet,chickpea,groundnut",0.0,0.0,0.0,0.0,0.0,0.0,0.0
Rajasthan,Bharatpur,27.4158,74.349,"rice,pearl_millet,chickpea,groundnut,sugarcane",0.0,0.0,0.0,0.0,0.0,0.0,0.0
Rajasthan,Bhilwara,27.3186,74.2205,"rice,pearl_millet,chickpea,groundnut,sugarcane",0.0,0.0,0.0,0.0,0.0,0.0,0.0
Rajasthan,Bikaner,27.1007,74.2104,"rice,pearl_millet,chickpea,groundnut,sugarcane",0.0,0.0,0.0,0.0,0.0,0.0,0.0
Rajasthan,Bundi,26.719,74.4404,"rice,pearl_millet,chickpea,groundnut,sugarcane",0.0,0.0,0.0,0.0,0.0,0.0,0.0
Rajasthan,Chittorgarh,26.8046,73.7422,"rice,pearl_millet,chickpea,groundnut,sugarcane",0.0,0.0,0.0,0.0,0.0,0.0,0.0
Rajasthan,Churu,27.1693,73.895,"pearl_millet,chickpea,groundnut",0.0,0.0,0.0,0.0,0.0,0.0,0.0
Rajasthan,Dungarpur,27.4643,74.6718,"rice,pearl_millet,chickpea,groundnut,sugarcane",0.0,0.0,0.0,0.0,0.0,0.0,0.0
Rajasthan,Ganganagar,27.4387,74.0881,"rice,pearl_millet,chickpea,groundnut,sugarcane",0.0,0.0,0.0,0.0,0.0,0.0,0.0
Rajasthan,Jaipur,26.9124,75.7873,"rice,pearl_millet,chickpea,groundnut,sugarcane",0.0,0.0,0.0,0.0,0.0,0.0,0.0
Rajasthan,Jaisalmer,26.5393,74.6462,"pearl_millet,chickpea,groundnut,sugarcane",0.0,0.0,0.0,0.0,0.0,0.0,0.0
Rajasthan,Jalore,26.952,74.6846,"pearl_millet,chickpea,groundnut",0.0,0.0,0.0,0.0,0.0,0.0,0.0
Rajasthan,Jhalawar,27.4874,74.5709,"rice,pearl_millet,chickpea,groundnut,sugarcane",0.0,0.0,0.0,0.0,0.0,0.0,0.0
Rajasthan,Jhunjhunu,26.8182,74.103,"rice,pearl_millet,chickpea,groundnut,sugarcane",0.0,0.0,0.0,0.0,0.0,0.0,0.0
Rajasthan,Jodhpur,26.2389,73.0243,"rice,pearl_millet,chickpea,groundnut,sugarcane",0.0,0.0,0.0,0.0,0.0,0.0,0.0
Rajasthan,Kota,25.2138,75.8648,"rice,pearl_millet,chickpea,groundnut,sugarcane",0.0,0.0,0.0,0.0,0.0,0.0,0.0
Rajasthan,Nagaur,27.3749,74.0348,"pearl_millet,chickpea,groundnut,sugarcane",0.0,0.0,0.0,0.0,0.0,0.0,0.0
Rajasthan,Pali,26.6933,74.2747,"rice,pearl_millet,chickpea,groundnut,sugarcane",0.0,0.0,0.0,0.0,0.0,0.0,0.0
Rajasthan,Swami Madhopur,27.46,74.4139,"rice,pearl_millet,chickpea,groundnut,sugarcane",0.0,0.0,0.0,0.0,0.0,0.0,0.0
Rajasthan,Sikar,27.0939,73.8151,"pearl_millet,chickpea,groundnut,sugarcane",0.0,0.0,0.0,0.0,0.0,0.0,0.0
Rajasthan,Sirohi,27.1388,74.708,"rice,pearl_millet,chickpea,groundnut,sugarcane",0.0,0.0,0.0,0.0,0.0,0.0,0.0
Rajasthan,Tonk,26.6639,74.2362,"rice,pearl_millet,chickpea,groundnut,sugarcane",0.0,0.0,0.0,0.0,0.0,0.0,0.0
Rajasthan,Udaipur,27.4012,74.4587,"rice,pearl_millet,chickpea,groundnut,sugarcane",0.0,0.0,0.0,0.0,0.0,0.0,0.0
Punjab,Gurdaspur,31.3441,75.5437,"rice,pearl_millet,chickpea,sugarcane",3.8316569446634086,4.57211333350064,3.141760554661384,65.7107740585774,0.0,1.1119186046511629,0.0
Punjab,Amritsar,31.634,74.8723,"rice,pearl_millet,chickpea,sugarcane",3.8316569446634086,4.57211333350064,3.141760554661384,65.7107740585774,0.0,1.1119186046511629,0.0
Punjab,Kapurthala,31.0066,75.1348,"rice,pearl_millet,chickpea,groundnut,sugarcane",3.8316569446634086,4.57211333350064,3.141760554661384,65.7107740585774,0.0,1.1119186046511629,0.0
Punjab,Jalandhar,31.326,75.5762,"rice,pearl_millet,chickpea,groundnut,sugarcane",3.8316569446634086,4.57211333350064,3.141760554661384,65.7107740585774,0.0,1.1119186046511629,0.0
Punjab,Hoshiarpur,31.4565,75.6513,"rice,pearl_millet,chickpea,groundnut,sugarcane",3.8316569446634086,4.57211333350064,3.141760554661384,65.7107740585774,0.0,1.1119186046511629,0.0
Punjab,Roopnagar,31.5142,75.7544,"rice,pearl_millet,chickpea,groundnut,sugarcane",3.8316569446634086,4.57211333350064,3.141760554661384,65.7107740585774,0.0,1.1119186046511629,0.0
Punjab,Ludhiana,30.901,75.8573,"rice,pearl_millet,chickpea,groundnut,sugarcane",3.8316569446634086,4.57211333350064,3.141760554661384,65.7107740585774,0.0,1.1119186046511629,0.0
Punjab,Ferozpur,31.1584,75.3427,"rice,pearl_millet,chickpea,groundnut,sugarcane",3.8316569446634086,4.57211333350064,3.141760554661384,65.7107740585774,0.0,1.1119186046511629,0.0
Punjab,Faridkot,31.4454,75.4912,"rice,pearl_millet,chickpea,groundnut,sugarcane",3.8316569446634086,4.57211333350064,3.141760554661384,65.7107740585774,0.0,1.1119186046511629,0.0
Punjab,Bhatinda,31.3491,75.637,"rice,pearl_millet,chickpea,groundnut,sugarcane",3.8316569446634086,4.57211333350064,3.141760554661384,65.7107740585774,0.0,1.1119186046511629,0.0
Punjab,Sangrur,31.5371,75.1792,"rice,pearl_millet,chickpea,groundnut,sugarcane",3.8316569446634086,4.57211333350064,3.141760554661384,65.7107740585774,0.0,1.1119186046511629,0.0
Punjab,Patiala,30.3398,76.3869,"rice,pearl_millet,chickpea,groundnut,sugarcane",3.8316569446634086,4.57211333350064,3.141760554661384,65.7107740585774,0.0,1.1119186046511629,0.0
Haryana,Hissar,28.9344,75.6796,"rice,pearl_millet,chickpea,groundnut,sugarcane",2.976193159950735,4.339750721944303,2.3386491907430096,60.88575893840932,0.0,1.0207691301992865,0.0
Haryana,Sirsa,29.1371,75.6215,"rice,pearl_millet,chickpea,groundnut,sugarcane",2.976193159950735,4.339750721944303,2.3386491907430096,60.88575893840932,0.0,1.0207691301992865,0.0
Haryana,Bhiwani,29.0244,76.1282,"rice,pearl_millet,chickpea,groundnut,sugarcane",2.976193159950735,4.339750721944303,2.3386491907430096,60.88575893840932,0.0,1.0207691301992865,0.0
Haryana,Gurgaon,28.4595,77.0266,"rice,pearl_millet,chickpea,groundnut,sugarcane",2.976193159950735,4.339750721944303,2.3386491907430096,60.88575893840932,0.0,1.0207691301992865,0.0
Haryana,Jind,28.8453,76.1764,"rice,pearl_millet,chickpea,sugarcane",2.976193159950735,4.339750721944303,2.3386491907430096,60.88575893840932,0.0,1.0207691301992865,0.0
Haryana,Mahendragarh,28.5893,75.6229,"pearl_millet,chickpea,groundnut",2.976193159950735,4.339750721944303,2.3386491907430096,60.88575893840932,0.0,1.0207691301992865,0.0
Haryana,Ambala,29.3814,75.9458,"rice,pearl_millet,chickpea,groundnut,sugarcane",2.976193159950735,4.339750721944303,2.3386491907430096,60.88575893840932,0.0,1.0207691301992865,0.0
Haryana,Karnal,29.6857,76.9905,"rice,pearl_millet,chickpea,sugarcane",2.976193159950735,4.339750721944303,2.3386491907430096,60.88575893840932,0.0,1.0207691301992865,0.0
Haryana,Kurukshetra,28.6859,76.1078,"rice,chickpea,sugarcane",2.976193159950735,4.339750721944303,2.3386491907430096,60.88575893840932,0.0,1.0207691301992865,0.0
Haryana,Rohtak,28.8955,76.6066,"rice,pearl_millet,chickpea,groundnut,sugarcane",2.976193159950735,4.339750721944303,2.3386491907430096,60.88575893840932,0.0,1.0207691301992865,0.0
Haryana,Sonepat,29.3288,75.8014,"rice,pearl_millet,chickpea,sugarcane",2.976193159950735,4.339750721944303,2.3386491907430096,60.88575893840932,0.0,1.0207691301992865,0.0
Haryana,Faridabad,28.4089,77.3178,"rice,pearl_millet,chickpea,sugarcane",2.976193159950735,4.339750721944303,2.3386491907430096,60.88575893840932,0.0,1.0207691301992865,0.0
Uttar Pradesh,Saharanpur,26.9696,80.5315,"rice,pearl_millet,chickpea,groundnut,sugarcane",2.211306280297167,2.9430056802902462,1.6106571039070317,62.748715714840245,0.0,0.8248823524854875,0.0
Uttar Pradesh,Muzaffarnagar,26.3984,80.9776,"rice,pearl_millet,chickpea,groundnut,sugarcane",2.211306280297167,2.9430056802902462,1.6106571039070317,62.748715714840245,0.0,0.8248823524854875,0.0
Uttar Pradesh,Meerut,26.8873,81.0836,"rice,pearl_millet,chickpea,sugarcane",2.211306280297167,2.9430056802902462,1.6106571039070317,62.748715714840245,0.0,0.8248823524854875,0.0
Uttar Pradesh,Buland Shahar,27.0728,81.4221,"rice,pearl_millet,chickpea,groundnut,sugarcane",2.211306280297167,2.9430056802902462,1.6106571039070317,62.748715714840245,0.0,0.8248823524854875,0.0
Uttar Pradesh,Ghaziabad,26.863,80.7692,"rice,pearl_millet,chickpea,sugarcane",2.211306280297167,2.9430056802902462,1.6106571039070317,62.748715714840245,0.0,0.8248823524854875,0.0
Uttar Pradesh,Aligarh,27.1419,80.717,"rice,pearl_millet,chickpea,groundnut,sugarcane",2.211306280297167,2.9430056802902462,1.6106571039070317,62.748715714840245,0.0,0.8248823524854875,0.0
Uttar Pradesh,Mathura,26.7857,80.5247,"rice,pearl_millet,chickpea,groundnut,sugarcane",2.211306280297167,2.9430056802902462,1.6106571039070317,62.748715714840245,0.0,0.8248823524854875,0.0
Uttar Pradesh,Agra,26.3721,81.4088,"rice,pearl_millet,chickpea,groundnut,sugarcane",2.211306280297167,2.9430056802902462,1.6106571039070317,62.748715714840245,0.0,0.8248823524854875,0.0
Uttar Pradesh,Mainpuri,27.1827,81.1422,"rice,pearl_millet,chickpea,groundnut,sugarcane",2.211306280297167,2.9430056802902462,1.6106571039070317,62.748715714840245,0.0,0.8248823524854875,0.0
Uttar Pradesh,Etah,26.7557,80.6195,"rice,pearl_millet,chickpea,groundnut,sugarcane",2.211306280297167,2.9430056802902462,1.6106571039070317,62.748715714840245,0.0,0.8248823524854875,0.0
Uttar Pradesh,Bareilly,26.5031,80.6964,"rice,pearl_millet,chickpea,groundnut,sugarcane",2.211306280297167,2.9430056802902462,1.6106571039070317,62.748715714840245,0.0,0.8248823524854875,0.0
Uttar Pradesh,Budaun,26.8959,81.1608,"rice,pearl_millet,chickpea,groundnut,sugarcane",2.211306280297167,2.9430056802902462,1.6106571039070317,62.748715714840245,0.0,0.8248823524854875,0.0
Uttar Pradesh,Moradabad,27.0069,80.7261,"rice,pearl_millet,chickpea,groundnut,sugarcane",2.211306280297167,2.9430056802902462,1.6106571039070317,62.748715714840245,0.0,0.8248823524854875,0.0
Uttar Pradesh,Shahjahanpur,27.3016,81.1841,"rice,pearl_millet,chickpea,groundnut,sugarcane",2.211306280297167,2.9430056802902462,1.6106571039070317,62.748715714840245,0.0,0.8248823524854875,0.0
Uttar Pradesh,Pilibhit,26.9011,81.0579,"rice,pearl_millet,chickpea,groundnut,sugarcane",2.211306280297167,2.9430056802902462,1.6106571039070317,62.748715714840245,0.0,0.8248823524854875,0.0
Uttar Pradesh,Rampur,26.7663,80.6939,"rice,pearl_millet,chickpea,groundnut,sugarcane",2.211306280297167,2.9430056802902462,1.6106571039070317,62.748715714840245,0.0,0.8248823524854875,0.0
Uttar Pradesh,Bijnor,26.7027,81.204,"rice,pearl_millet,chickpea,groundnut,sugarcane",2.211306280297167,2.9430056802902462,1.6106571039070317,62.748715714840245,0.0,0.8248823524854875,0.0
Uttar Pradesh,Farrukhabad,26.3611,80.5623,"rice,pearl_millet,chickpea,groundnut,sugarcane",2.211306280297167,2.9430056802902462,1.6106571039070317,62.748715714840245,0.0,0.8248823524854875,0.0
Uttar Pradesh,Etawah,26.3927,80.4869,"rice,pearl_millet,chickpea,groundnut,sugarcane",2.211306280297167,2.9430056802902462,1.6106571039070317,62.748715714840245,0.0,0.8248823524854875,0.0
Uttar Pradesh,Fatehpur,27.2022,81.1499,"rice,pearl_millet,chickpea,groundnut,sugarcane",2.211306280297167,2.9430056802902462,1.6106571039070317,62.748715714840245,0.0,0.8248823524854875,0.0
Uttar Pradesh,Allahabad,26.8209,80.544,"rice,pearl_millet,chickpea,groundnut,sugarcane",2.211306280297167,2.9430056802902462,1.6106571039070317,62.748715714840245,0.0,0.8248823524854875,0.0
Uttar Pradesh,Jhansi,26.8383,80.9197,"rice,pearl_millet,chickpea,groundnut,sugarcane",2.211306280297167,2.9430056802902462,1.6106571039070317,62.748715714840245,0.0,0.8248823524854875,0.0
Uttar Pradesh,Lalitpur,26.5199,80.8801,"rice,pearl_millet,chickpea,groundnut,sugarcane",2.211306280297167,2.9430056802902462,1.6106571039070317,62.748715714840245,0.0,0.8248823524854875,0.0
Uttar Pradesh,Jalaun,26.7452,81.0621,"rice,pearl_millet,chickpea,groundnut,sugarcane",2.211306280297167,2.9430056802902462,1.6106571039070317,62.748715714840245,0.0,0.8248823524854875,0.0
Uttar Pradesh,Hamirpur,26.9818,80.4915,"rice,pearl_millet,chickpea,groundnut,sugarcane",2.211306280297167,2.9430056802902462,1.6106571039070317,62.748715714840245,0.0,0.8248823524854875,0.0
Uttar Pradesh,Banda,26.7213,81.0721,"rice,pearl_millet,chickpea,groundnut,sugarcane",2.211306280297167,2.9430056802902462,1.6106571039070317,62.748715714840245,0.0,0.8248823524854875,0.0
Uttar Pradesh,Varanasi,25.3176,82.9739,"rice,pearl_millet,chickpea,groundnut,sugarcane",2.211306280297167,2.9430056802902462,1.6106571039070317,62.748715714840245,0.0,0.8248823524854875,0.0
Uttar Pradesh,Mirzpur,26.8498,81.3027,"rice,pearl_millet,chickpea,groundnut,sugarcane",2.211306280297167,2.9430056802902462,1.6106571039070317,62.748715714840245,0.0,0.8248823524854875,0.0
Uttar Pradesh,Jaunpur,27.0054,80.6091,"rice,pearl_millet,chickpea,groundnut,sugarcane",2.211306280297167,2.9430056802902462,1.6106571039070317,62.748715714840245,0.0,0.8248823524854875,0.0
Uttar Pradesh,Ghazipur,26.4173,81.0886,"rice,pearl_millet,chickpea,groundnut,sugarcane",2.211306280297167,2.9430056802902462,1.6106571039070317,62.748715714840245,0.0,0.8248823524854875,0.0
Uttar Pradesh,Ballia,26.3732,81.032,"rice,pearl_millet,chickpea,groundnut,sugarcane",2.211306280297167,2.9430056802902462,1.6106571039070317,62.748715714840245,0.0,0.8248823524854875,0.0
Uttar Pradesh,Gorakhpur,27.2869,81.0217,"rice,pearl_millet,chickpea,groundnut,sugarcane",2.211306280297167,2.9430056802902462,1.6106571039070317,62.748715714840245,0.0,0.8248823524854875,0.0
Uttar Pradesh,Deoria,26.7349,81.0895,"rice,pearl_millet,chickpea,groundnut,sugarcane",2.211306280297167,2.9430056802902462,1.6106571039070317,62.748715714840245,0.0,0.8248823524854875,0.0
Uttar Pradesh,Basti,26.805,80.9918,"rice,pearl_millet,chickpea,groundnut,sugarcane",2.211306280297167,2.9430056802902462,1.6106571039070317,62.748715714840245,0.0,0.8248823524854875,0.0
Uttar Pradesh,Azamgarh,27.2882,80.8323,"rice,pearl_millet,chickpea,groundnut,sugarcane",2.211306280297167,2.9430056802902462,1.6106571039070317,62.748715714840245,0.0,0.8248823524854875,0.0
Uttar Pradesh,Lucknow,26.8467,80.9462,"rice,pearl_millet,chickpea,groundnut,sugarcane",2.211306280297167,2.9430056802902462,1.6106571039070317,62.748715714840245,0.0,0.8248823524854875,0.0
Uttar Pradesh,Unnao,27.3079,81.3516,"rice,pearl_millet,chickpea,groundnut,sugarcane",2.211306280297167,2.9430056802902462,1.6106571039070317,62.748715714840245,0.0,0.8248823524854875,0.0
Uttar Pradesh,Rae-Bareily,26.5425,80.5156,"rice,pearl_millet,chickpea,groundnut,sugarcane",2.211306280297167,2.9430056802902462,1.6106571039070317,62.748715714840245,0.0,0.8248823524854875,0.0
Uttar Pradesh,Sitapur,26.4475,80.4644,"rice,pearl_millet,chickpea,groundnut,sugarcane",2.211306280297167,2.9430056802902462,1.6106571039070317,62.748715714840245,0.0,0.8248823524854875,0.0
Uttar Pradesh,Hardoi,26.4411,81.1292,"rice,pearl_millet,chickpea,groundnut,sugarcane",2.211306280297167,2.9430056802902462,1.6106571039070317,62.748715714840245,0.0,0.8248823524854875,0.0
Uttar Pradesh,Kheri,26.4179,80.7652,"rice,pearl_millet,chickpea,groundnut,sugarcane",2.211306280297167,2.9430056802902462,1.6106571039070317,62.748715714840245,0.0,0.8248823524854875,0.0
Uttar Pradesh,Faizabad,27.1916,80.4695,"rice,pearl_millet,chickpea,groundnut,sugarcane",2.211306280297167,2.9430056802902462,1.6106571039070317,62.748715714840245,0.0,0.8248823524854875,0.0
Uttar Pradesh,Gonda,27.1612,80.7281,"rice,pearl_millet,chickpea,groundnut,sugarcane",2.211306280297167,2.9430056802902462,1.6106571039070317,62.748715714840245,0.0,0.8248823524854875,0.0
Uttar Pradesh,Bahraich,26.4649,81.1429,"rice,pearl_millet,chickpea,groundnut,sugarcane",2.211306280297167,2.9430056802902462,1.6106571039070317,62.748715714840245,0.0,0.8248823524854875,0.0
Uttar Pradesh,Sultanpur,26.9756,81.3237,"rice,pearl_millet,chickpea,groundnut,sugarcane",2.211306280297167,2.9430056802902462,1.6106571039070317,62.748715714840245,0.0,0.8248823524854875,0.0
Uttar Pradesh,Pratapgarh,27.0818,81.2497,"rice,pearl_millet,chickpea,sugarcane",2.211306280297167,2.9430056802902462,1.6106571039070317,62.748715714840245,0.0,0.8248823524854875,0.0
Uttar Pradesh,Barabanki,26.6287,80.6236,"rice,pearl_millet,chickpea,groundnut,sugarcane",2.211306280297167,2.9430056802902462,1.6106571039070317,62.748715714840245,0.0,0.8248823524854875,0.0
Uttarakhand,Nainital,30.3174,79.3261,"rice,pearl_millet,chickpea,groundnut,sugarcane",2.1882613188517963,2.2767632883763262,1.5454152918949349,62.331495865470906,0.0,1.1109226460494654,0.0
Uttarakhand,Almorah,30.5573,78.9319,"rice,chickpea,groundnut,sugarcane",2.1882613188517963,2.2767632883763262,1.5454152918949349,62.331495865470906,0.0,1.1109226460494654,0.0
Uttarakhand,Pithorgarh,29.9388,79.2957,"rice,chickpea,groundnut,sugarcane",2.1882613188517963,2.2767632883763262,1.5454152918949349,62.331495865470906,0.0,1.1109226460494654,0.0
Uttarakhand,Chamoli,29.9076,79.4501,"rice,chickpea",2.1882613188517963,2.2767632883763262,1.5454152918949349,62.331495865470906,0.0,1.1109226460494654,0.0
Uttarakhand,Uttar Kashi,30.4252,78.9483,"rice,chickpea",2.1882613188517963,2.2767632883763262,1.5454152918949349,62.331495865470906,0.0,1.1109226460494654,0.0
Uttarakhand,Tehri Garhwal,30.3177,79.2738,"rice,chickpea,sugarcane",2.1882613188517963,2.2767632883763262,1.5454152918949349,62.331495865470906,0.0,1.1109226460494654,0.0
Uttarakhand,Garhwal,29.6699,79.4219,"rice,chickpea,groundnut,sugarcane",2.1882613188517963,2.2767632883763262,1.5454152918949349,62.331495865470906,0.0,1.1109226460494654,0.0
Uttarakhand,Dehradun,30.0721,79.3458,"rice,chickpea,groundnut,sugarcane",2.1882613188517963,2.2767632883763262,1.5454152918949349,62.331495865470906,0.0,1.1109226460494654,0.0
Chhattisgarh,Rajnandgaon,21.0987,82.2616,"rice,pearl_millet,chickpea,groundnut,sugarcane",1.4767043887729834,1.2003248591928484,1.8010974416489594,11.136011639664884,0.0,1.2676032789707528,0.0
Madhya Pradesh,Bhopal,23.2599,77.4126,"rice,pearl_millet,chickpea,groundnut,sugarcane",1.3164301673944963,2.476739864994916,2.1049222168891375,44.63208814725796,0.0,1.2705257216970058,0.0
Andhra Pradesh,Vizianagaram,15.8021,79.2508,"rice,pearl_millet,chickpea,groundnut,sugarcane",3.106414190105651,0.8539922401470288,4.376945286663845,77.06632721732613,0.0,0.819369863585075,0.0
Andhra Pradesh,Prakasam,16.3183,79.3313,"rice,pearl_millet,chickpea,groundnut,sugarcane",3.106414190105651,0.8539922401470288,4.376945286663845,77.06632721732613,0.0,0.819369863585075,0.0
Tamil Nadu,Dharmapuri,10.9464,79.107,"rice,pearl_millet,chickpea,groundnut,sugarcane",3.2370418456349697,0.0,4.9041107370019486,106.6075500034572,0.0,2.0547826788130386,0.0
Tamil Nadu,Periyar (Erode),11.5777,78.7303,"rice,pearl_millet,chickpea,groundnut,sugarcane",3.2370418456349697,0.0,4.9041107370019486,106.6075500034572,0.0,2.0547826788130386,0.0
Tamil Nadu,Pudukkottai,11.2589,78.6053,"rice,pearl_millet,groundnut,sugarcane",3.2370418456349697,0.0,4.9041107370019486,106.6075500034572,0.0,2.0547826788130386,0.0
Tamil Nadu,Dindigul Anna,10.9203,78.4856,"rice,pearl_millet,chickpea,groundnut,sugarcane",3.2370418456349697,0.0,4.9041107370019486,106.6075500034572,0.0,2.0547826788130386,0.0
Tamil Nadu,Virudhunagar / Kamarajar,11.2996,78.9093,"rice,pearl_millet,chickpea,groundnut,sugarcane",3.2370418456349697,0.0,4.9041107370019486,106.6075500034572,0.0,2.0547826788130386,0.0
Tamil Nadu,Sivagangai / Pasumpon,11.4187,78.9465,"rice,pearl_millet,chickpea,groundnut,sugarcane",3.2370418456349697,0.0,4.9041107370019486,106.6075500034572,0.0,2.0547826788130386,0.0
Tamil Nadu,Chidambanar / Toothukudi,10.7183,78.6513,"rice,pearl_millet,chickpea,groundnut,sugarcane",3.2370418456349697,0.0,4.9041107370019486,106.6075500034572,0.0,2.0547826788130386,0.0
Maharashtra,Jalna,19.3091,75.7634,"rice,pearl_millet,chickpea,groundnut,sugarcane",1.7596648971494138,1.4753457609261522,2.2886437053711397,81.27973521946655,0.0,1.1126249175202167,0.0
Maharashtra,Latur,19.693,76.1016,"rice,pearl_millet,chickpea,groundnut,sugarcane",1.7596648971494138,1.4753457609261522,2.2886437053711397,81.27973521946655,0.0,1.1126249175202167,0.0
Maharashtra,Gadchiroli,19.6024,75.331,"rice,pearl_millet,chickpea,groundnut,sugarcane",1.7596648971494138,1.4753457609261522,2.2886437053711397,81.27973521946655,0.0,1.1126249175202167,0.0
Maharashtra,Sindhudurg,19.3945,75.9754,"rice,groundnut,sugarcane",1.7596648971494138,1.4753457609261522,2.2886437053711397,81.27973521946655,0.0,1.1126249175202167,0.0
Gujarat,Gandhinagar,23.1407,72.1725,"rice,pearl_millet,chickpea,groundnut",1.913217323168899,2.7930742134338216,1.5020852046900137,68.27796707160732,0.0,1.4768894272377961,0.0
Rajasthan,Dholpur,26.6079,74.4189,"rice,pearl_millet,chickpea,groundnut,sugarcane",0.0,0.0,0.0,0.0,0.0,0.0,0.0
Telangana,Rangareddy,17.6852,79.3412,"rice,pearl_millet,chickpea,groundnut,sugarcane",3.403559318490957,1.5997220859898642,4.08624690864526,78.21674259634305,0.0,2.0213998861178397,0.0
Tamil Nadu,Thiruvannamalai,11.3333,78.2382,"rice,pearl_millet,chickpea,groundnut,sugarcane",3.2370418456349697,0.0,4.9041107370019486,106.6075500034572,0.0,2.0547826788130386,0.0
Haryana,Yamunanagar,28.6436,76.5722,"rice,pearl_millet,chickpea,groundnut,sugarcane",2.976193159950735,4.339750721944303,2.3386491907430096,60.88575893840932,0.0,1.0207691301992865,0.0
Haryana,Kaithal,28.9331,75.9562,"rice,pearl_millet,chickpea,sugarcane",2.976193159950735,4.339750721944303,2.3386491907430096,60.88575893840932,0.0,1.0207691301992865,0.0
Haryana,Panipat,29.3909,76.9635,"rice,pearl_millet,chickpea,sugarcane",2.976193159950735,4.339750721944303,2.3386491907430096,60.88575893840932,0.0,1.0207691301992865,0.0
Haryana,Rewari,29.3716,76.5328,"rice,pearl_millet,chickpea,groundnut",2.976193159950735,4.339750721944303,2.3386491907430096,60.88575893840932,0.0,1.0207691301992865,0.0
Uttarakhand,Haridwar,30.5528,79.2727,"rice,pearl_millet,chickpea,groundnut,sugarcane",2.1882613188517963,2.2767632883763262,1.5454152918949349,62.331495865470906,0.0,1.1109226460494654,0.0
Uttar Pradesh,Firozabad,26.723,80.5297,"rice,pearl_millet,chickpea,groundnut,sugarcane",2.211306280297167,2.9430056802902462,1.6106571039070317,62.748715714840245,0.0,0.8248823524854875,0.0
Uttar Pradesh,Sonbhadra,27.1238,81.0046,"rice,pearl_millet,chickpea,groundnut,sugarcane",2.211306280297167,2.9430056802902462,1.6106571039070317,62.748715714840245,0.0,0.8248823524854875,0.0
Uttar Pradesh,Mau,26.7709,81.3526,"rice,pearl_millet,chickpea,groundnut,sugarcane",2.211306280297167,2.9430056802902462,1.6106571039070317,62.748715714840245,0.0,0.8248823524854875,0.0
Uttar Pradesh,Mahrajgani,26.4579,80.9388,"rice,pearl_millet,chickpea,groundnut,sugarcane",2.211306280297167,2.9430056802902462,1.6106571039070317,62.748715714840245,0.0,0.8248823524854875,0.0
Uttar Pradesh,Sidharthnagar,26.3581,80.9149,"rice,pearl_millet,chickpea,groundnut,sugarcane",2.211306280297167,2.9430056802902462,1.6106571039070317,62.748715714840245,0.0,0.8248823524854875,0.0
Uttar Pradesh,Mahoba,26.403,80.565,"rice,pearl_millet,chickpea,groundnut,sugarcane",2.211306280297167,2.9430056802902462,1.6106571039070317,62.748715714840245,0.0,0.8248823524854875,0.0
Rajasthan,Baran,26.6413,74.3671,"rice,pearl_millet,chickpea,groundnut,sugarcane",0.0,0.0,0.0,0.0,0.0,0.0,0.0
Rajasthan,Dausa,27.2698,74.3013,"rice,pearl_millet,chickpea,groundnut,sugarcane",0.0,0.0,0.0,0.0,0.0,0.0,0.0
Rajasthan,Rajsamand,27.486,74.0928,"rice,pearl_millet,chickpea,groundnut,sugarcane",0.0,0.0,0.0,0.0,0.0,0.0,0.0
Rajasthan,Hanumangarh,26.8095,74.5865,"rice,pearl_millet,chickpea,groundnut,sugarcane",0.0,0.0,0.0,0.0,0.0,0.0,0.0
Tamil Nadu,Nagapattinam,10.8507,79.1201,"rice,pearl_millet,groundnut,sugarcane",3.2370418456349697,0.0,4.9041107370019486,106.6075500034572,0.0,2.0547826788130386,0.0
Tamil Nadu,Villupuram,10.6393,79.1268,"rice,pearl_millet,chickpea,groundnut,sugarcane",3.2370418456349697,0.0,4.9041107370019486,106.6075500034572,0.0,2.0547826788130386,0.0
Punjab,Mansa,30.6903,75.7323,"rice,pearl_millet,chickpea,groundnut,sugarcane",3.8316569446634086,4.57211333350064,3.141760554661384,65.7107740585774,0.0,1.1119186046511629,0.0
Punjab,Fatehgarh Sahib,31.1748,75.8342,"rice,pearl_millet,chickpea,sugarcane",3.8316569446634086,4.57211333350064,3.141760554661384,65.7107740585774,0.0,1.1119186046511629,0.0
Uttar Pradesh,Kanpur Nagar,26.4205,81.0001,"rice,pearl_millet,chickpea,groundnut,sugarcane",2.211306280297167,2.9430056802902462,1.6106571039070317,62.748715714840245,0.0,0.8248823524854875,0.0
Uttar Pradesh,Kanpur Dehat,27.316,80.9693,"rice,pearl_millet,chickpea,groundnut,sugarcane",2.211306280297167,2.9430056802902462,1.6106571039070317,62.748715714840245,0.0,0.8248823524854875,0.0
Karnataka,Bangalore (Rural),15.4467,75.9096,"rice,pearl_millet,chickpea,groundnut,sugarcane",2.694419359994436,0.8834127048459898,2.8972899753660815,87.89801544518777,0.0,0.7150491433005693,0.0
Karnataka,Bangalore (Urban),15.2718,75.8415,"rice,pearl_millet,chickpea,groundnut,sugarcane",2.694419359994436,0.8834127048459898,2.8972899753660815,87.89801544518777,0.0,0.7150491433005693,0.0
Assam,Cachar,26.2849,93.3388,"rice,chickpea,sugarcane",1.72021800653507,1.1760678723782674,1.7716224679094572,37.80143342460353,0.0,0.0,0.0
Assam,Darrang,25.746,92.7186,"rice,chickpea,sugarcane",1.72021800653507,1.1760678723782674,1.7716224679094572,37.80143342460353,0.0,0.0,0.0
Assam,Dibrugarh,26.651,93.3279,"rice,chickpea,sugarcane",1.72021800653507,1.1760678723782674,1.7716224679094572,37.80143342460353,0.0,0.0,0.0
Assam,Goalpara,26.1563,93.0577,"rice,chickpea,sugarcane",1.72021800653507,1.1760678723782674,1.7716224679094572,37.80143342460353,0.0,0.0,0.0
Assam,Kamrup,25.978,92.6257,"rice,chickpea,sugarcane",1.72021800653507,1.1760678723782674,1.7716224679094572,37.80143342460353,0.0,0.0,0.0
Assam,Karbi Anglong,26.1643,92.791,"rice,chickpea,sugarcane",1.72021800653507,1.1760678723782674,1.7716224679094572,37.80143342460353,0.0,0.0,0.0
Assam,Lakhimpur,26.2843,92.5153,"rice,chickpea,sugarcane",1.72021800653507,1.1760678723782674,1.7716224679094572,37.80143342460353,0.0,0.0,0.0
Assam,North Cachar Hil,26.675,93.4238,"rice,chickpea,sugarcane",1.72021800653507,1.1760678723782674,1.7716224679094572,37.80143342460353,0.0,0.0,0.0
Assam,Nagaon,26.3988,92.9737,"rice,chickpea,sugarcane",1.72021800653507,1.1760678723782674,1.7716224679094572,37.80143342460353,0.0,0.0,0.0
Assam,Sibsagar,26.0101,93.2514,"rice,chickpea,sugarcane",1.72021800653507,1.1760678723782674,1.7716224679094572,37.80143342460353,0.0,0.0,0.0
Assam,Barpeta,26.3853,92.6002,"rice,chickpea,sugarcane",1.72021800653507,1.1760678723782674,1.7716224679094572,37.80143342460353,0.0,0.0,0.0
Assam,Dhubri,26.6115,93.2601,"rice,chickpea,sugarcane",1.72021800653507,1.1760678723782674,1.7716224679094572,37.80143342460353,0.0,0.0,0.0
Assam,Golaghat,26.6504,93.1633,"rice,chickpea,sugarcane",1.72021800653507,1.1760678723782674,1.7716224679094572,37.80143342460353,0.0,0.0,0.0
Assam,Jorhat,26.314,92.8558,"rice,chickpea,sugarcane",1.72021800653507,1.1760678723782674,1.7716224679094572,37.80143342460353,0.0,0.0,0.0
Assam,Karimganj,26.6333,93.3037,"rice,chickpea,sugarcane",1.72021800653507,1.1760678723782674,1.7716224679094572,37.80143342460353,0.0,0.0,0.0
Assam,Kokrajhar,25.7458,92.464,"rice,chickpea,sugarcane",1.72021800653507,1.1760678723782674,1.7716224679094572,37.80143342460353,0.0,0.0,0.0
Assam,Nalbari,26.0771,93.2482,"rice,chickpea,sugarcane",1.72021800653507,1.1760678723782674,1.7716224679094572,37.80143342460353,0.0,0.0,0.0
Assam,Sonitpur,26.6879,92.588,"rice,chickpea,sugarcane",1.72021800653507,1.1760678723782674,1.7716224679094572,37.80143342460353,0.0,0.0,0.0
Himachal Pradesh,Bilashpur,31.1989,77.0543,"rice,pearl_millet,chickpea,groundnut,sugarcane",1.4882650977513925,1.4315030615320776,2.1858499176358803,14.91678508634601,0.0,0.7747701736465782,0.0
Himachal Pradesh,Chamba,31.5747,77.5155,"rice,pearl_millet,chickpea",1.4882650977513925,1.4315030615320776,2.1858499176358803,14.91678508634601,0.0,0.7747701736465782,0.0
Himachal Pradesh,Hamirpur,31.4431,77.1421,"rice,pearl_millet,chickpea,sugarcane",1.4882650977513925,1.4315030615320776,2.1858499176358803,14.91678508634601,0.0,0.7747701736465782,0.0
Himachal Pradesh,Kangra,31.0196,76.9468,"rice,pearl_millet,chickpea,sugarcane",1.4882650977513925,1.4315030615320776,2.1858499176358803,14.91678508634601,0.0,0.7747701736465782,0.0
Himachal Pradesh,Kinnaur,30.6612,77.5381,"rice,pearl_millet",1.4882650977513925,1.4315030615320776,2.1858499176358803,14.91678508634601,0.0,0.7747701736465782,0.0
Himachal Pradesh,Kullu,31.4177,77.6731,"rice,chickpea,groundnut",1.4882650977513925,1.4315030615320776,2.1858499176358803,14.91678508634601,0.0,0.7747701736465782,0.0
Himachal Pradesh,Lahul & Spiti,31.6014,77.2288,"rice,wheat,maize",1.4882650977513925,1.4315030615320776,2.1858499176358803,14.91678508634601,0.0,0.7747701736465782,0.0
Himachal Pradesh,Solan,31.3738,77.6182,"rice,pearl_millet,chickpea,groundnut,sugarcane",1.4882650977513925,1.4315030615320776,2.1858499176358803,14.91678508634601,0.0,0.7747701736465782,0.0
Himachal Pradesh,Mandi,31.4544,76.9207,"rice,pearl_millet,chickpea,groundnut,sugarcane",1.4882650977513925,1.4315030615320776,2.1858499176358803,14.91678508634601,0.0,0.7747701736465782,0.0
Himachal Pradesh,Shimla,31.0553,76.8026,"rice,pearl_millet,chickpea,groundnut,sugarcane",1.4882650977513925,1.4315030615320776,2.1858499176358803,14.91678508634601,0.0,0.7747701736465782,0.0
Himachal Pradesh,Sirmaur,31.5589,77.2796,"rice,pearl_millet,chickpea,groundnut,sugarcane",1.4882650977513925,1.4315030615320776,2.1858499176358803,14.91678508634601,0.0,0.7747701736465782,0.0
Himachal Pradesh,Una,30.8334,77.3451,"rice,pearl_millet,chickpea,groundnut,sugarcane",1.4882650977513925,1.4315030615320776,2.1858499176358803,14.91678508634601,0.0,0.7747701736465782,0.0
Kerala,Alappuzha,10.9686,76.1293,"rice,sugarcane",2.4301113356107,1.4285714285714286,1.045091029963971,87.61188634869238,0.0,0.7880370678377651,0.0
Kerala,Kannur,10.4641,76.4427,"rice,sugarcane",2.4301113356107,1.4285714285714286,1.045091029963971,87.61188634869238,0.0,0.7880370678377651,0.0
Kerala,Eranakulam,10.8708,76.5434,"rice,sugarcane",2.4301113356107,1.4285714285714286,1.045091029963971,87.61188634869238,0.0,0.7880370678377651,0.0
Kerala,Idukki,10.8707,76.6233,"rice,sugarcane",2.4301113356107,1.4285714285714286,1.045091029963971,87.61188634869238,0.0,0.7880370678377651,0.0
Kerala,Kottayam,10.9024,76.332,"rice,sugarcane",2.4301113356107,1.4285714285714286,1.045091029963971,87.61188634869238,0.0,0.7880370678377651,0.0
Kerala,Kozhikode,11.2272,76.1746,"rice,sugarcane",2.4301113356107,1.4285714285714286,1.045091029963971,87.61188634869238,0.0,0.7880370678377651,0.0
Kerala,Malappuram,10.4845,75.7999,"rice,sugarcane",2.4301113356107,1.4285714285714286,1.045091029963971,87.61188634869238,0.0,0.7880370678377651,0.0
Kerala,Palakkad,11.1056,76.3914,"rice,groundnut,sugarcane",2.4301113356107,1.4285714285714286,1.045091029963971,87.61188634869238,0.0,0.7880370678377651,0.0
Kerala,Kollam,11.0546,75.9841,"rice,sugarcane",2.4301113356107,1.4285714285714286,1.045091029963971,87.61188634869238,0.0,0.7880370678377651,0.0
Kerala,Thrissur,10.4869,75.7856,"rice,sugarcane",2.4301113356107,1.4285714285714286,1.045091029963971,87.61188634869238,0.0,0.7880370678377651,0.0
Kerala,Thiruvananthapuram,10.7011,76.361,"rice,groundnut",2.4301113356107,1.4285714285714286,1.045091029963971,87.61188634869238,0.0,0.7880370678377651,0.0
Kerala,Kasaragod,10.7427,76.2086,"rice,groundnut,sugarcane",2.4301113356107,1.4285714285714286,1.045091029963971,87.61188634869238,0.0,0.7880370678377651,0.0
Kerala,Pathanamthitta,11.2547,76.1194,"rice,sugarcane",2.4301113356107,1.4285714285714286,1.045091029963971,87.61188634869238,0.0,0.7880370678377651,0.0
Kerala,Wayanad,10.8645,76.5548,"rice,sugarcane",2.4301113356107,1.4285714285714286,1.045091029963971,87.61188634869238,0.0,0.7880370678377651,0.0
Orissa,Balasore,20.8482,85.2206,"rice,chickpea,groundnut,sugarcane",0.0,0.0,0.0,0.0,0.0,0.0,0.0
Orissa,Bolangir,21.3141,85.548,"rice,chickpea,groundnut,sugarcane",0.0,0.0,0.0,0.0,0.0,0.0,0.0
Orissa,Cuttack,20.5988,85.5251,"rice,chickpea,groundnut,sugarcane",0.0,0.0,0.0,0.0,0.0,0.0,0.0
Orissa,Dhenkanal,20.9438,84.8567,"rice,chickpea,groundnut,sugarcane",0.0,0.0,0.0,0.0,0.0,0.0,0.0
Orissa,Ganjam,20.9108,85.5785,"rice,pearl_millet,chickpea,groundnut,sugarcane",0.0,0.0,0.0,0.0,0.0,0.0,0.0
Orissa,Kalahandi,20.9443,84.9273,"rice,pearl_millet,chickpea,groundnut,sugarcane",0.0,0.0,0.0,0.0,0.0,0.0,0.0
Orissa,Keonjhar,21.0851,84.8386,"rice,pearl_millet,chickpea,groundnut,sugarcane",0.0,0.0,0.0,0.0,0.0,0.0,0.0
Orissa,Koraput,20.5276,84.7274,"rice,pearl_millet,chickpea,groundnut,sugarcane",0.0,0.0,0.0,0.0,0.0,0.0,0.0
Orissa,Mayurbhanja,20.5797,84.7504,"rice,pearl_millet,chickpea,groundnut,sugarcane",0.0,0.0,0.0,0.0,0.0,0.0,0.0
Orissa,Phulbani ( Kandhamal ),20.5905,85.2394,"rice,pearl_millet,chickpea,groundnut,sugarcane",0.0,0.0,0.0,0.0,0.0,0.0,0.0
Orissa,Puri,20.6336,84.9442,"rice,chickpea,groundnut,sugarcane",0.0,0.0,0.0,0.0,0.0,0.0,0.0
Orissa,Sambalpur,21.3485,85.0725,"rice,pearl_millet,chickpea,groundnut,sugarcane",0.0,0.0,0.0,0.0,0.0,0.0,0.0
Orissa,Sundargarh,21.1193,84.7708,"rice,pearl_millet,chickpea,groundnut,sugarcane",0.0,0.0,0.0,0.0,0.0,0.0,0.0
Orissa,Bhadrak,20.644,84.6394,"rice,chickpea,groundnut,sugarcane",0.0,0.0,0.0,0.0,0.0,0.0,0.0
Orissa,Jagatsinghapur,20.6206,84.8771,"rice,chickpea,groundnut,sugarcane",0.0,0.0,0.0,0.0,0.0,0.0,0.0
Orissa,Jajapur,20.6287,84.6872,"rice,chickpea,groundnut,sugarcane",0.0,0.0,0.0,0.0,0.0,0.0,0.0
Orissa,Kendrapara,20.5723,85.0593,"rice,chickpea,groundnut,sugarcane",0.0,0.0,0.0,0.0,0.0,0.0,0.0
Orissa,Angul,20.658,84.9628,"rice,chickpea,groundnut,sugarcane",0.0,0.0,0.0,0.0,0.0,0.0,0.0
Orissa,Gajapati,20.9551,85.2889,"rice,pearl_millet,chickpea,groundnut,sugarcane",0.0,0.0,0.0,0.0,0.0,0.0,0.0
Orissa,Nuapada,20.491,85.3979,"rice,pearl_millet,chickpea,groundnut,sugarcane",0.0,0.0,0.0,0.0,0.0,0.0,0.0
Orissa,Malkangiri,21.0796,84.6803,"rice,pearl_millet,chickpea,groundnut,sugarcane",0.0,0.0,0.0,0.0,0.0,0.0,0.0
Orissa,Nawarangpur,21.3253,85.5194,"rice,pearl_millet,chickpea,groundnut,sugarcane",0.0,0.0,0.0,0.0,0.0,0.0,0.0
Orissa,Rayagada,20.5128,84.8754,"rice,pearl_millet,chickpea,groundnut,sugarcane",0.0,0.0,0.0,0.0,0.0,0.0,0.0
Orissa,Khurda,21.2579,85.3468,"rice,chickpea,groundnut,sugarcane",0.0,0.0,0.0,0.0,0.0,0.0,0.0
Orissa,Nayagarh,20.6362,84.8078,"rice,pearl_millet,chickpea,groundnut,sugarcane",0.0,0.0,0.0,0.0,0.0,0.0,0.0
Orissa,Boudh,20.8222,85.083,"rice,chickpea,groundnut,sugarcane",0.0,0.0,0.0,0.0,0.0,0.0,0.0
Orissa,Bargarh,21.07,84.9674,"rice,pearl_millet,chickpea,groundnut,sugarcane",0.0,0.0,0.0,0.0,0.0,0.0,0.0
Orissa,Deogarh,20.9142,85.346,"rice,chickpea,groundnut,sugarcane",0.0,0.0,0.0,0.0,0.0,0.0,0.0
Orissa,Jharsuguda,20.4884,84.8509,"rice,chickpea,groundnut,sugarcane",0.0,0.0,0.0,0.0,0.0,0.0,0.0
Orissa,Sonepur,21.165,85.4937,"rice,chickpea,groundnut,sugarcane",0.0,0.0,0.0,0.0,0.0,0.0,0.0
West Bengal,24-Paraganas South,22.9985,87.8871,"rice,chickpea,groundnut,sugarcane",2.6185488233728598,2.459235563114563,4.629779214209344,82.77030794576099,0.0,1.9808616750460908,0.0
West Bengal,24-Paraganas North,22.594,87.8024,"rice,chickpea,groundnut,sugarcane",2.6185488233728598,2.459235563114563,4.629779214209344,82.77030794576099,0.0,1.9808616750460908,0.0
West Bengal,Nadia,23.0194,87.5975,"rice,chickpea,groundnut,sugarcane",2.6185488233728598,2.459235563114563,4.629779214209344,82.77030794576099,0.0,1.9808616750460908,0.0
West Bengal,Murshidabad,22.756,87.7323,"rice,pearl_millet,chickpea,groundnut,sugarcane",2.6185488233728598,2.459235563114563,4.629779214209344,82.77030794576099,0.0,1.9808616750460908,0.0
West Bengal,Burdwan,22.5069,87.6771,"rice,pearl_millet,chickpea,groundnut,sugarcane",2.6185488233728598,2.459235563114563,4.629779214209344,82.77030794576099,0.0,1.9808616750460908,0.0
West Bengal,Birbhum,22.6982,87.6825,"rice,pearl_millet,chickpea,groundnut,sugarcane",2.6185488233728598,2.459235563114563,4.629779214209344,82.77030794576099,0.0,1.9808616750460908,0.0
West Bengal,Bankura,22.6066,88.2455,"rice,pearl_millet,chickpea,groundnut,sugarcane",2.6185488233728598,2.459235563114563,4.629779214209344,82.77030794576099,0.0,1.9808616750460908,0.0
West Bengal,Hooghly,23.0804,88.0341,"rice,pearl_millet,chickpea,groundnut,sugarcane",2.6185488233728598,2.459235563114563,4.629779214209344,82.77030794576099,0.0,1.9808616750460908,0.0
West Bengal,Jhargram,23.276,87.8534,"rice,chickpea,groundnut,sugarcane",2.6185488233728598,2.459235563114563,4.629779214209344,82.77030794576099,0.0,1.9808616750460908,0.0
West Bengal,Jalpaiguri,22.5737,87.8921,"rice,chickpea,groundnut,sugarcane",2.6185488233728598,2.459235563114563,4.629779214209344,82.77030794576099,0.0,1.9808616750460908,0.0
West Bengal,Darjeeling,23.0736,88.1004,"rice,chickpea,groundnut,sugarcane",2.6185488233728598,2.459235563114563,4.629779214209344,82.77030794576099,0.0,1.9808616750460908,0.0
West Bengal,Malda,22.9185,87.4826,"rice,chickpea,groundnut,sugarcane",2.6185488233728598,2.459235563114563,4.629779214209344,82.77030794576099,0.0,1.9808616750460908,0.0
West Bengal,Cooch Behar,22.7706,87.7181,"rice,pearl_millet,chickpea,groundnut,sugarcane",2.6185488233728598,2.459235563114563,4.629779214209344,82.77030794576099,0.0,1.9808616750460908,0.0
West Bengal,Purulia,23.1327,87.9258,"rice,pearl_millet,chickpea,groundnut,sugarcane",2.6185488233728598,2.459235563114563,4.629779214209344,82.77030794576099,0.0,1.9808616750460908,0.0
West Bengal,Uttar Dinajpur,22.8429,88.3415,"rice,chickpea,groundnut,sugarcane",2.6185488233728598,2.459235563114563,4.629779214209344,82.77030794576099,0.0,1.9808616750460908,0.0
West Bengal,Dakshin Dinajpur,23.0926,87.5922,"rice,chickpea,groundnut,sugarcane",2.6185488233728598,2.459235563114563,4.629779214209344,82.77030794576099,0.0,1.9808616750460908,0.0
West Bengal,East Midnapore / Purba Midnapore,22.5886,87.5079,"rice,chickpea,groundnut,sugarcane",2.6185488233728598,2.459235563114563,4.629779214209344,82.77030794576099,0.0,1.9808616750460908,0.0
West Bengal,West Midnapore,22.7328,87.5157,"rice,pearl_millet,chickpea,groundnut,sugarcane",2.6185488233728598,2.459235563114563,4.629779214209344,82.77030794576099,0.0,1.9808616750460908,0.0
Bihar,Muzaffarpur,26.1209,85.3647,"rice,pearl_millet,chickpea,groundnut,sugarcane",1.7116498028731775,2.2649519670261493,3.1741074941508236,52.41850206972593,0.0,1.0030673521406661,0.0
Bihar,Darbhanga,24.7827,85.0982,"rice,pearl_millet,chickpea,groundnut,sugarcane",1.7116498028731775,2.2649519670261493,3.1741074941508236,52.41850206972593,0.0,1.0030673521406661,0.0
Bihar,Saharsa,24.7695,85.7099,"rice,chickpea,sugarcane",1.7116498028731775,2.2649519670261493,3.1741074941508236,52.41850206972593,0.0,1.0030673521406661,0.0
Bihar,Purnea,24.6763,85.3376,"rice,chickpea,groundnut,sugarcane",1.7116498028731775,2.2649519670261493,3.1741074941508236,52.41850206972593,0.0,1.0030673521406661,0.0
Bihar,Saran,25.0065,85.7955,"rice,pearl_millet,chickpea,sugarcane",1.7116498028731775,2.2649519670261493,3.1741074941508236,52.41850206972593,0.0,1.0030673521406661,0.0
Bihar,Patna,25.5941,85.1376,"rice,pearl_millet,chickpea,sugarcane",1.7116498028731775,2.2649519670261493,3.1741074941508236,52.41850206972593,0.0,1.0030673521406661,0.0
Bihar,Mungair,24.7081,85.211,"rice,pearl_millet,chickpea,groundnut,sugarcane",1.7116498028731775,2.2649519670261493,3.1741074941508236,52.41850206972593,0.0,1.0030673521406661,0.0
Bihar,Bhagalpur,25.5656,85.6786,"rice,pearl_millet,chickpea,sugarcane",1.7116498028731775,2.2649519670261493,3.1741074941508236,52.41850206972593,0.0,1.0030673521406661,0.0
Jharkhand,Santhal Paragana / Dumka,23.9273,85.0378,"rice,pearl_millet,chickpea,groundnut,sugarcane",1.358370263469528,1.6657359104796794,1.63456193951208,40.38771706892791,0.0,1.0818472742075922,0.0
Bihar,Gaya,24.7914,84.9787,"rice,pearl_millet,chickpea,groundnut,sugarcane",1.7116498028731775,2.2649519670261493,3.1741074941508236,52.41850206972593,0.0,1.0030673521406661,0.0
Jharkhand,Hazaribagh,23.2811,85.4485,"rice,pearl_millet,chickpea,groundnut,sugarcane",1.358370263469528,1.6657359104796794,1.63456193951208,40.38771706892791,0.0,1.0818472742075922,0.0
Jharkhand,Dhanbad,24.0396,85.3367,"rice,pearl_millet,chickpea,sugarcane",1.358370263469528,1.6657359104796794,1.63456193951208,40.38771706892791,0.0,1.0818472742075922,0.0
Jharkhand,Palamau,23.6818,85.0599,"rice,pearl_millet,chickpea,groundnut,sugarcane",1.358370263469528,1.6657359104796794,1.63456193951208,40.38771706892791,0.0,1.0818472742075922,0.0
Jharkhand,Ranchi,23.8797,84.9669,"rice,pearl_millet,chickpea,groundnut,sugarcane",1.358370263469528,1.6657359104796794,1.63456193951208,40.38771706892791,0.0,1.0818472742075922,0.0
Bihar,Nalanda,24.9198,85.2385,"rice,chickpea,groundnut,sugarcane",1.7116498028731775,2.2649519670261493,3.1741074941508236,52.41850206972593,0.0,1.0030673521406661,0.0
Bihar,Nawada,25.1037,85.0555,"rice,pearl_millet,chickpea,groundnut,sugarcane",1.7116498028731775,2.2649519670261493,3.1741074941508236,52.41850206972593,0.0,1.0030673521406661,0.0
Bihar,Aurangabad,19.8762,75.3433,"rice,chickpea,groundnut,sugarcane",1.7116498028731775,2.2649519670261493,3.1741074941508236,52.41850206972593,0.0,1.0030673521406661,0.0
Bihar,Bhojpur,24.7109,85.4237,"rice,pearl_millet,chickpea,sugarcane",1.7116498028731775,2.2649519670261493,3.1741074941508236,52.41850206972593,0.0,1.0030673521406661,0.0
Bihar,Rohtas,24.8847,85.3943,"rice,pearl_millet,chickpea,groundnut,sugarcane",1.7116498028731775,2.2649519670261493,3.1741074941508236,52.41850206972593,0.0,1.0030673521406661,0.0
Bihar,Siwan,24.7505,85.2942,"rice,pearl_millet,chickpea,groundnut,sugarcane",1.7116498028731775,2.2649519670261493,3.1741074941508236,52.41850206972593,0.0,1.0030673521406661,0.0
Bihar,Gopalganj,25.1287,84.8649,"rice,pearl_millet,chickpea,groundnut,sugarcane",1.7116498028731775,2.2649519670261493,3.1741074941508236,52.41850206972593,0.0,1.0030673521406661,0.0
Bihar,Champaran (East),24.9327,84.9475,"rice,pearl_millet,chickpea,groundnut,sugarcane",1.7116498028731775,2.2649519670261493,3.1741074941508236,52.41850206972593,0.0,1.0030673521406661,0.0
Bihar,Champaran (West),24.6595,85.8031,"rice,pearl_millet,chickpea,groundnut,sugarcane",1.7116498028731775,2.2649519670261493,3.1741074941508236,52.41850206972593,0.0,1.0030673521406661,0.0
Bihar,Vaishali,24.9185,85.623,"rice,pearl_millet,chickpea,sugarcane",1.7116498028731775,2.2649519670261493,3.1741074941508236,52.41850206972593,0.0,1.0030673521406661,0.0
Bihar,Sitamarhi,24.8507,85.4946,"rice,pearl_millet,chickpea,groundnut,sugarcane",1.7116498028731775,2.2649519670261493,3.1741074941508236,52.41850206972593,0.0,1.0030673521406661,0.0
Bihar,Madhubani,25.3563,85.4087,"rice,pearl_millet,chickpea,sugarcane",1.7116498028731775,2.2649519670261493,3.1741074941508236,52.41850206972593,0.0,1.0030673521406661,0.0
Bihar,Samastipur,25.0677,85.2249,"rice,pearl_millet,chickpea,sugarcane",1.7116498028731775,2.2649519670261493,3.1741074941508236,52.41850206972593,0.0,1.0030673521406661,0.0
Bihar,Begusarai,24.945,85.7426,"rice,pearl_millet,chickpea,groundnut,sugarcane",1.7116498028731775,2.2649519670261493,3.1741074941508236,52.41850206972593,0.0,1.0030673521406661,0.0
Bihar,Katihar,25.4267,85.7781,"rice,pearl_millet,chickpea,groundnut,sugarcane",1.7116498028731775,2.2649519670261493,3.1741074941508236,52.41850206972593,0.0,1.0030673521406661,0.0
Jharkhand,Giridih,23.2345,85.5108,"rice,pearl_millet,chickpea,groundnut,sugarcane",1.358370263469528,1.6657359104796794,1.63456193951208,40.38771706892791,0.0,1.0818472742075922,0.0
Bihar,Jehanabad,25.5344,84.9943,"rice,chickpea,groundnut,sugarcane",1.7116498028731775,2.2649519670261493,3.1741074941508236,52.41850206972593,0.0,1.0030673521406661,0.0
Bihar,Madhepura,24.6626,85.5542,"rice,pearl_millet,chickpea,groundnut,sugarcane",1.7116498028731775,2.2649519670261493,3.1741074941508236,52.41850206972593,0.0,1.0030673521406661,0.0
Bihar,Khagaria,25.1706,85.6549,"rice,chickpea,groundnut,sugarcane",1.7116498028731775,2.2649519670261493,3.1741074941508236,52.41850206972593,0.0,1.0030673521406661,0.0
Jharkhand,Godda,23.25,85.5752,"rice,pearl_millet,chickpea,groundnut,sugarcane",1.358370263469528,1.6657359104796794,1.63456193951208,40.38771706892791,0.0,1.0818472742075922,0.0
Jharkhand,Sahebganj,23.3118,84.9436,"rice,pearl_millet,chickpea,sugarcane",1.358370263469528,1.6657359104796794,1.63456193951208,40.38771706892791,0.0,1.0818472742075922,0.0
Jharkhand,Devghar / Deogarh,23.2745,85.5945,"rice,pearl_millet,chickpea,groundnut,sugarcane",1.358370263469528,1.6657359104796794,1.63456193951208,40.38771706892791,0.0,1.0818472742075922,0.0
Jharkhand,Lohardagga,23.7754,85.303,"rice,chickpea,groundnut,sugarcane",1.358370263469528,1.6657359104796794,1.63456193951208,40.38771706892791,0.0,1.0818472742075922,0.0
Jharkhand,Gumla,23.469,85.6571,"rice,pearl_millet,chickpea,groundnut,sugarcane",1.358370263469528,1.6657359104796794,1.63456193951208,40.38771706892791,0.0,1.0818472742075922,0.0
Jharkhand,Singhbhum East,23.5026,85.5965,"rice,pearl_millet,chickpea,sugarcane",1.358370263469528,1.6657359104796794,1.63456193951208,40.38771706892791,0.0,1.0818472742075922,0.0
Jharkhand,Singhbhum West,23.5493,85.1568,"rice,pearl_millet,chickpea,groundnut,sugarcane",1.358370263469528,1.6657359104796794,1.63456193951208,40.38771706892791,0.0,1.0818472742075922,0.0
Bihar,Araria,25.0588,85.1145,"rice,pearl_millet,chickpea,groundnut,sugarcane",1.7116498028731775,2.2649519670261493,3.1741074941508236,52.41850206972593,0.0,1.0030673521406661,0.0
Bihar,Kishanganj,25.3437,85.3158,"rice,chickpea,groundnut,sugarcane",1.7116498028731775,2.2649519670261493,3.1741074941508236,52.41850206972593,0.0,1.0030673521406661,0.0
Bihar,Buxar,24.8283,85.7127,"rice,pearl_millet,chickpea,sugarcane",1.7116498028731775,2.2649519670261493,3.1741074941508236,52.41850206972593,0.0,1.0030673521406661,0.0
Bihar,Bhabhua / Kaimur,24.98,85.3567,"rice,pearl_millet,chickpea,sugarcane",1.7116498028731775,2.2649519670261493,3.1741074941508236,52.41850206972593,0.0,1.0030673521406661,0.0
Bihar,Banka,25.5026,85.4373,"rice,pearl_millet,chickpea,groundnut,sugarcane",1.7116498028731775,2.2649519670261493,3.1741074941508236,52.41850206972593,0.0,1.0030673521406661,0.0
Bihar,Jamui,24.713,85.7529,"rice,pearl_millet,chickpea,sugarcane",1.7116498028731775,2.2649519670261493,3.1741074941508236,52.41850206972593,0.0,1.0030673521406661,0.0
Bihar,Supaul,25.2238,85.148,"rice,chickpea,groundnut,sugarcane",1.7116498028731775,2.2649519670261493,3.1741074941508236,52.41850206972593,0.0,1.0030673521406661,0.0
Jharkhand,Chatra,23.2495,85.5739,"rice,pearl_millet,chickpea,groundnut,sugarcane",1.358370263469528,1.6657359104796794,1.63456193951208,40.38771706892791,0.0,1.0818472742075922,0.0
Jharkhand,Bokaro,23.7303,85.3134,"rice,pearl_millet,chickpea,groundnut,sugarcane",1.358370263469528,1.6657359104796794,1.63456193951208,40.38771706892791,0.0,1.0818472742075922,0.0
Jharkhand,Gadva / Garhwa,24.0041,85.5685,"rice,pearl_millet,chickpea,groundnut,sugarcane",1.358370263469528,1.6657359104796794,1.63456193951208,40.38771706892791,0.0,1.0818472742075922,0.0
Jharkhand,Khodrama / Koderma,23.2619,85.0916,"rice,chickpea,sugarcane",1.358370263469528,1.6657359104796794,1.63456193951208,40.38771706892791,0.0,1.0818472742075922,0.0
Bihar,Lakhisarai,24.8446,85.557,"rice,chickpea,sugarcane",1.7116498028731775,2.2649519670261493,3.1741074941508236,52.41850206972593,0.0,1.0030673521406661,0.0
Jharkhand,Pakund / Pakur,23.1437,85.3498,"rice,chickpea,groundnut,sugarcane",1.358370263469528,1.6657359104796794,1.63456193951208,40.38771706892791,0.0,1.0818472742075922,0.0
Bihar,Sheikapura,25.3586,85.6899,"rice,chickpea,sugarcane",1.7116498028731775,2.2649519670261493,3.1741074941508236,52.41850206972593,0.0,1.0030673521406661,0.0
Bihar,Sheohar,24.9382,85.6344,"rice,pearl_millet,chickpea,sugarcane",1.7116498028731775,2.2649519670261493,3.1741074941508236,52.41850206972593,0.0,1.0030673521406661,0.0
Bihar,Arwal,24.7067,85.6596,"rice,chickpea,groundnut,sugarcane",1.7116498028731775,2.2649519670261493,3.1741074941508236,52.41850206972593,0.0,1.0030673521406661,0.0
Jharkhand,Jamtara,23.2377,85.1772,"rice,chickpea,groundnut",1.358370263469528,1.6657359104796794,1.63456193951208,40.38771706892791,0.0,1.0818472742075922,0.0
Jharkhand,Latehar,23.9075,84.9298,"rice,chickpea,sugarcane",1.358370263469528,1.6657359104796794,1.63456193951208,40.38771706892791,0.0,1.0818472742075922,0.0
Jharkhand,Sariakela / Kharsawan,23.3395,85.5022,"rice,chickpea,sugarcane",1.358370263469528,1.6657359104796794,1.63456193951208,40.38771706892791,0.0,1.0818472742075922,0.0
Jharkhand,Simdega,23.8302,85.421,"rice,chickpea",1.358370263469528,1.6657359104796794,1.63456193951208,40.38771706892791,0.0,1.0818472742075922,0.0
Tamil Nadu,Chennai,13.0827,80.2707,"rice,wheat,maize",3.2370418456349697,0.0,4.9041107370019486,106.6075500034572,0.0,2.0547826788130386,0.0
Gujarat,Anand,23.2164,72.6141,"rice,pearl_millet,chickpea,groundnut,sugarcane",1.913217323168899,2.7930742134338216,1.5020852046900137,68.27796707160732,0.0,1.4768894272377961,0.0
Gujarat,Dahod,22.7743,72.4171,"rice,pearl_millet,chickpea,groundnut",1.913217323168899,2.7930742134338216,1.5020852046900137,68.27796707160732,0.0,1.4768894272377961,0.0
Gujarat,Narmada,22.7041,72.9799,"rice,pearl_millet,chickpea,groundnut,sugarcane",1.913217323168899,2.7930742134338216,1.5020852046900137,68.27796707160732,0.0,1.4768894272377961,0.0
Gujarat,Navsari,23.1059,72.4723,"rice,pearl_millet,chickpea,groundnut,sugarcane",1.913217323168899,2.7930742134338216,1.5020852046900137,68.27796707160732,0.0,1.4768894272377961,0.0
Gujarat,Patan,22.9845,73.0187,"pearl_millet,chickpea,groundnut",1.913217323168899,2.7930742134338216,1.5020852046900137,68.27796707160732,0.0,1.4768894272377961,0.0
Gujarat,Porbandar,22.6759,72.6576,"pearl_millet,chickpea,groundnut",1.913217323168899,2.7930742134338216,1.5020852046900137,68.27796707160732,0.0,1.4768894272377961,0.0
Haryana,Fatehabad,29.0647,76.1971,"rice,pearl_millet,chickpea,groundnut,sugarcane",2.976193159950735,4.339750721944303,2.3386491907430096,60.88575893840932,0.0,1.0207691301992865,0.0
Haryana,Jhajjar,28.5769,76.4577,"rice,pearl_millet,chickpea,groundnut,sugarcane",2.976193159950735,4.339750721944303,2.3386491907430096,60.88575893840932,0.0,1.0207691301992865,0.0
Haryana,Panchkula,29.4909,76.1507,"rice,pearl_millet,chickpea,groundnut,sugarcane",2.976193159950735,4.339750721944303,2.3386491907430096,60.88575893840932,0.0,1.0207691301992865,0.0
Karnataka,Bagalkote,15.514,76.1364,"rice,pearl_millet,chickpea,groundnut,sugarcane",2.694419359994436,0.8834127048459898,2.8972899753660815,87.89801544518777,0.0,0.7150491433005693,0.0
Karnataka,Chamaraja Nagar,15.5245,75.3664,"rice,pearl_millet,chickpea,groundnut,sugarcane",2.694419359994436,0.8834127048459898,2.8972899753660815,87.89801544518777,0.0,0.7150491433005693,0.0
Karnataka,Davanagere,15.3936,75.8206,"rice,pearl_millet,chickpea,groundnut,sugarcane",2.694419359994436,0.8834127048459898,2.8972899753660815,87.89801544518777,0.0,0.7150491433005693,0.0
Karnataka,Gadag,15.2414,75.9503,"rice,pearl_millet,chickpea,groundnut,sugarcane",2.694419359994436,0.8834127048459898,2.8972899753660815,87.89801544518777,0.0,0.7150491433005693,0.0
Karnataka,Haveri,15.7517,76.1395,"rice,pearl_millet,chickpea,groundnut,sugarcane",2.694419359994436,0.8834127048459898,2.8972899753660815,87.89801544518777,0.0,0.7150491433005693,0.0
Karnataka,Koppal,15.2681,75.3271,"rice,pearl_millet,chickpea,groundnut,sugarcane",2.694419359994436,0.8834127048459898,2.8972899753660815,87.89801544518777,0.0,0.7150491433005693,0.0
Karnataka,Udupi,15.8021,76.0528,"rice,chickpea,groundnut,sugarcane",2.694419359994436,0.8834127048459898,2.8972899753660815,87.89801544518777,0.0,0.7150491433005693,0.0
Punjab,S.B.S Nagar,30.7718,75.762,"rice,pearl_millet,chickpea,sugarcane",3.8316569446634086,4.57211333350064,3.141760554661384,65.7107740585774,0.0,1.1119186046511629,0.0
Punjab,Shri Mukatsar Sahib,31.517,75.36,"rice,pearl_millet,chickpea,groundnut,sugarcane",3.8316569446634086,4.57211333350064,3.141760554661384,65.7107740585774,0.0,1.1119186046511629,0.0
Punjab,Moga,31.2384,75.2402,"rice,pearl_millet,chickpea,groundnut,sugarcane",3.8316569446634086,4.57211333350064,3.141760554661384,65.7107740585774,0.0,1.1119186046511629,0.0
Rajasthan,Karoli,26.5786,74.0531,"rice,pearl_millet,chickpea,groundnut,sugarcane",0.0,0.0,0.0,0.0,0.0,0.0,0.0
Tamil Nadu,Karur,11.43,78.1615,"rice,pearl_millet,chickpea,groundnut,sugarcane",3.2370418456349697,0.0,4.9041107370019486,106.6075500034572,0.0,2.0547826788130386,0.0
Tamil Nadu,Namakkal,10.9606,78.5551,"rice,pearl_millet,chickpea,groundnut,sugarcane",3.2370418456349697,0.0,4.9041107370019486,106.6075500034572,0.0,2.0547826788130386,0.0
Tamil Nadu,Perambular,11.1645,79.0768,"rice,pearl_millet,chickpea,groundnut,sugarcane",3.2370418456349697,0.0,4.9041107370019486,106.6075500034572,0.0,2.0547826788130386,0.0
Tamil Nadu,Theni,10.9734,78.5039,"rice,pearl_millet,chickpea,groundnut,sugarcane",3.2370418456349697,0.0,4.9041107370019486,106.6075500034572,0.0,2.0547826788130386,0.0
Tamil Nadu,Tiruvarur,11.3646,78.6091,"rice,groundnut,sugarcane",3.2370418456349697,0.0,4.9041107370019486,106.6075500034572,0.0,2.0547826788130386,0.0
Tamil Nadu,Thiruvallur,10.8517,78.6093,"rice,pearl_millet,chickpea,groundnut,sugarcane",3.2370418456349697,0.0,4.9041107370019486,106.6075500034572,0.0,2.0547826788130386,0.0
Uttar Pradesh,Ambedkar Nagar,26.4876,80.6226,"rice,pearl_millet,chickpea,groundnut,sugarcane",2.211306280297167,2.9430056802902462,1.6106571039070317,62.748715714840245,0.0,0.8248823524854875,0.0
Uttar Pradesh,Kushi Nagar / Padrauna,26.8451,80.8651,"rice,pearl_millet,chickpea,groundnut,sugarcane",2.211306280297167,2.9430056802902462,1.6106571039070317,62.748715714840245,0.0,0.8248823524854875,0.0
Uttarakhand,Udham Singh Nagar,30.4816,78.8817,"rice,pearl_millet,chickpea,groundnut,sugarcane",2.1882613188517963,2.2767632883763262,1.5454152918949349,62.331495865470906,0.0,1.1109226460494654,0.0
Uttar Pradesh,Auraiya,26.9273,81.0785,"rice,pearl_millet,chickpea,groundnut,sugarcane",2.211306280297167,2.9430056802902462,1.6106571039070317,62.748715714840245,0.0,0.8248823524854875,0.0
Uttarakhand,Bageshwar,29.5799,79.1828,"rice,chickpea",2.1882613188517963,2.2767632883763262,1.5454152918949349,62.331495865470906,0.0,1.1109226460494654,0.0
Uttar Pradesh,Bagpat,26.5247,81.4073,"rice,pearl_millet,chickpea,sugarcane",2.211306280297167,2.9430056802902462,1.6106571039070317,62.748715714840245,0.0,0.8248823524854875,0.0
Uttar Pradesh,Balrampur,26.4954,80.8608,"rice,pearl_millet,chickpea,groundnut,sugarcane",2.211306280297167,2.9430056802902462,1.6106571039070317,62.748715714840245,0.0,0.8248823524854875,0.0
Uttarakhand,Champavat,29.6521,79.5162,"rice,chickpea,groundnut,sugarcane",2.1882613188517963,2.2767632883763262,1.5454152918949349,62.331495865470906,0.0,1.1109226460494654,0.0
Uttar Pradesh,Chandauli,26.8489,81.0416,"rice,pearl_millet,chickpea,groundnut,sugarcane",2.211306280297167,2.9430056802902462,1.6106571039070317,62.748715714840245,0.0,0.8248823524854875,0.0
Uttar Pradesh,Chitrakoot,26.4138,81.1962,"rice,pearl_millet,chickpea,groundnut,sugarcane",2.211306280297167,2.9430056802902462,1.6106571039070317,62.748715714840245,0.0,0.8248823524854875,0.0
Uttar Pradesh,G.B.Nagar,26.5566,81.3443,"rice,pearl_millet,chickpea,sugarcane",2.211306280297167,2.9430056802902462,1.6106571039070317,62.748715714840245,0.0,0.8248823524854875,0.0
Uttar Pradesh,Hathras,26.5518,80.6369,"rice,pearl_millet,chickpea,groundnut,sugarcane",2.211306280297167,2.9430056802902462,1.6106571039070317,62.748715714840245,0.0,0.8248823524854875,0.0
Uttar Pradesh,Amroha/J.B.Fulenagar,26.3832,80.9183,"rice,pearl_millet,chickpea,groundnut,sugarcane",2.211306280297167,2.9430056802902462,1.6106571039070317,62.748715714840245,0.0,0.8248823524854875,0.0
Uttar Pradesh,Kannauj,26.9115,80.5119,"rice,pearl_millet,chickpea,groundnut,sugarcane",2.211306280297167,2.9430056802902462,1.6106571039070317,62.748715714840245,0.0,0.8248823524854875,0.0
Uttar Pradesh,Kushambi,27.1222,80.8995,"rice,pearl_millet,chickpea,groundnut,sugarcane",2.211306280297167,2.9430056802902462,1.6106571039070317,62.748715714840245,0.0,0.8248823524854875,0.0
Uttarakhand,Rudraprayag,30.0912,78.9601,"rice,chickpea",2.1882613188517963,2.2767632883763262,1.5454152918949349,62.331495865470906,0.0,1.1109226460494654,0.0
Uttar Pradesh,Santh Ravi Das Nagar / Bhadoi,26.7475,81.0058,"rice,pearl_millet,chickpea,groundnut,sugarcane",2.211306280297167,2.9430056802902462,1.6106571039070317,62.748715714840245,0.0,0.8248823524854875,0.0
Uttar Pradesh,Santh Kabir Nagar,26.5019,80.6281,"rice,pearl_millet,chickpea,groundnut,sugarcane",2.211306280297167,2.9430056802902462,1.6106571039070317,62.748715714840245,0.0,0.8248823524854875,0.0
Uttar Pradesh,Shravasti,27.2085,81.3923,"rice,pearl_millet,chickpea,groundnut,sugarcane",2.211306280297167,2.9430056802902462,1.6106571039070317,62.748715714840245,0.0,0.8248823524854875,0.0
Assam,Bongaigaon,26.0739,92.7083,"rice,chickpea,sugarcane",1.72021800653507,1.1760678723782674,1.7716224679094572,37.80143342460353,0.0,0.0,0.0
Assam,Dhemaji,26.3446,92.8463,"rice,chickpea,sugarcane",1.72021800653507,1.1760678723782674,1.7716224679094572,37.80143342460353,0.0,0.0,0.0
Assam,Hailakandi,25.726,92.5938,"rice,sugarcane",1.72021800653507,1.1760678723782674,1.7716224679094572,37.80143342460353,0.0,0.0,0.0
Assam,Marigaon,26.4166,93.0965,"rice,chickpea,sugarcane",1.72021800653507,1.1760678723782674,1.7716224679094572,37.80143342460353,0.0,0.0,0.0
Assam,Tinsukia,25.7277,92.6596,"rice,chickpea,sugarcane",1.72021800653507,1.1760678723782674,1.7716224679094572,37.80143342460353,0.0,0.0,0.0
Chhattisgarh,Dantewara,21.0098,82.038,"rice,chickpea,groundnut,sugarcane",1.4767043887729834,1.2003248591928484,1.8010974416489594,11.136011639664884,0.0,1.2676032789707528,0.0
Chhattisgarh,Dhamtari,20.7984,81.4702,"rice,chickpea,groundnut,sugarcane",1.4767043887729834,1.2003248591928484,1.8010974416489594,11.136011639664884,0.0,1.2676032789707528,0.0
Madhya Pradesh,Dindori,23.2733,78.3354,"rice,chickpea,groundnut",1.3164301673944963,2.476739864994916,2.1049222168891375,44.63208814725796,0.0,1.2705257216970058,0.0
Madhya Pradesh,Harda,23.1261,78.3951,"rice,pearl_millet,chickpea,sugarcane",1.3164301673944963,2.476739864994916,2.1049222168891375,44.63208814725796,0.0,1.2705257216970058,0.0
Chhattisgarh,Janjgir,20.8781,81.6093,"rice,chickpea,groundnut,sugarcane",1.4767043887729834,1.2003248591928484,1.8010974416489594,11.136011639664884,0.0,1.2676032789707528,0.0
Madhya Pradesh,Barwani,23.1957,79.0126,"rice,pearl_millet,chickpea,groundnut,sugarcane",1.3164301673944963,2.476739864994916,2.1049222168891375,44.63208814725796,0.0,1.2705257216970058,0.0
Madhya Pradesh,Katni,23.3036,78.5541,"rice,chickpea,groundnut,sugarcane",1.3164301673944963,2.476739864994916,2.1049222168891375,44.63208814725796,0.0,1.2705257216970058,0.0
Madhya Pradesh,Neemuch,23.1415,78.3619,"rice,pearl_millet,chickpea,groundnut,sugarcane",1.3164301673944963,2.476739864994916,2.1049222168891375,44.63208814725796,0.0,1.2705257216970058,0.0
Madhya Pradesh,Sheopur Kalan,22.7665,79.0532,"rice,pearl_millet,chickpea,groundnut,sugarcane",1.3164301673944963,2.476739864994916,2.1049222168891375,44.63208814725796,0.0,1.2705257216970058,0.0
Madhya Pradesh,Umaria,22.4864,78.2424,"rice,pearl_millet,chickpea,groundnut,sugarcane",1.3164301673944963,2.476739864994916,2.1049222168891375,44.63208814725796,0.0,1.2705257216970058,0.0
Chhattisgarh,Koriya,20.9866,81.3926,"rice,chickpea,groundnut",1.4767043887729834,1.2003248591928484,1.8010974416489594,11.136011639664884,0.0,1.2676032789707528,0.0
Chhattisgarh,Jashpur,20.9601,81.9491,"rice,pearl_millet,chickpea,groundnut,sugarcane",1.4767043887729834,1.2003248591928484,1.8010974416489594,11.136011639664884,0.0,1.2676032789707528,0.0
Chhattisgarh,Korba,21.2001,82.2588,"rice,pearl_millet,chickpea,groundnut,sugarcane",1.4767043887729834,1.2003248591928484,1.8010974416489594,11.136011639664884,0.0,1.2676032789707528,0.0
Chhattisgarh,Kawardha,21.5961,81.7079,"rice,pearl_millet,chickpea,groundnut,sugarcane",1.4767043887729834,1.2003248591928484,1.8010974416489594,11.136011639664884,0.0,1.2676032789707528,0.0
Chhattisgarh,Mahasmund,21.0381,81.7458,"rice,chickpea,groundnut,sugarcane",1.4767043887729834,1.2003248591928484,1.8010974416489594,11.136011639664884,0.0,1.2676032789707528,0.0
Chhattisgarh,Kanker,21.369,81.6342,"rice,chickpea,groundnut",1.4767043887729834,1.2003248591928484,1.8010974416489594,11.136011639664884,0.0,1.2676032789707528,0.0
Madhya Pradesh,Anuppur,23.0975,78.5663,"rice,chickpea,groundnut,sugarcane",1.3164301673944963,2.476739864994916,2.1049222168891375,44.63208814725796,0.0,1.2705257216970058,0.0
Maharashtra,Gondia,19.8035,75.65,"rice,chickpea,groundnut,sugarcane",1.7596648971494138,1.4753457609261522,2.2886437053711397,81.27973521946655,0.0,1.1126249175202167,0.0
Maharashtra,Hingoli,19.546,76.1624,"rice,pearl_millet,chickpea,groundnut,sugarcane",1.7596648971494138,1.4753457609261522,2.2886437053711397,81.27973521946655,0.0,1.1126249175202167,0.0
Maharashtra,Nandurbar,20.0151,75.354,"rice,pearl_millet,chickpea,groundnut,sugarcane",1.7596648971494138,1.4753457609261522,2.2886437053711397,81.27973521946655,0.0,1.1126249175202167,0.0
Maharashtra,Washim,20.12,75.7013,"rice,pearl_millet,chickpea,groundnut,sugarcane",1.7596648971494138,1.4753457609261522,2.2886437053711397,81.27973521946655,0.0,1.1126249175202167,0.0
Maharashtra,Mumbai sub,20.1461,76.0138,"rice,wheat,maize",1.7596648971494138,1.4753457609261522,2.2886437053711397,81.27973521946655,0.0,1.1126249175202167,0.0
Tamil Nadu,Ariyalur,11.0523,78.1794,"rice,pearl_millet,groundnut,sugarcane",3.2370418456349697,0.0,4.9041107370019486,106.6075500034572,0.0,2.0547826788130386,0.0
Tamil Nadu,Krishnagiri,10.8958,78.6985,"rice,pearl_millet,chickpea,groundnut,sugarcane",3.2370418456349697,0.0,4.9041107370019486,106.6075500034572,0.0,2.0547826788130386,0.0
Madhya Pradesh,Ashoknagar,23.1069,78.4148,"rice,pearl_millet,chickpea,groundnut,sugarcane",1.3164301673944963,2.476739864994916,2.1049222168891375,44.63208814725796,0.0,1.2705257216970058,0.0
Madhya Pradesh,Burhanpur,22.6128,78.9918,"rice,pearl_millet,chickpea,groundnut,sugarcane",1.3164301673944963,2.476739864994916,2.1049222168891375,44.63208814725796,0.0,1.2705257216970058,0.0
Gujarat,Tapi,23.5069,72.5971,"rice,pearl_millet,chickpea,groundnut,sugarcane",1.913217323168899,2.7930742134338216,1.5020852046900137,68.27796707160732,0.0,1.4768894272377961,0.0
Haryana,Mewat,28.7305,75.8579,"rice,pearl_millet,chickpea,sugarcane",2.976193159950735,4.339750721944303,2.3386491907430096,60.88575893840932,0.0,1.0207691301992865,0.0
Haryana,Palwal,28.5772,76.4999,"rice,pearl_millet,sugarcane",2.976193159950735,4.339750721944303,2.3386491907430096,60.88575893840932,0.0,1.0207691301992865,0.0
Karnataka,Ramanagaram,14.9351,75.7904,"rice,pearl_millet,chickpea,groundnut,sugarcane",2.694419359994436,0.8834127048459898,2.8972899753660815,87.89801544518777,0.0,0.7150491433005693,0.0
Karnataka,Chikkaballapur,15.0914,75.7681,"rice,pearl_millet,chickpea,groundnut,sugarcane",2.694419359994436,0.8834127048459898,2.8972899753660815,87.89801544518777,0.0,0.7150491433005693,0.0
Madhya Pradesh,Alirajpur,23.1248,78.9866,"rice,pearl_millet,chickpea,groundnut,sugarcane",1.3164301673944963,2.476739864994916,2.1049222168891375,44.63208814725796,0.0,1.2705257216970058,0.0
Madhya Pradesh,Singrauli,22.6798,78.1679,"rice,pearl_millet,chickpea,groundnut,sugarcane",1.3164301673944963,2.476739864994916,2.1049222168891375,44.63208814725796,0.0,1.2705257216970058,0.0
Punjab,Taran Taran,30.784,75.7412,"rice,pearl_millet,chickpea,sugarcane",3.8316569446634086,4.57211333350064,3.141760554661384,65.7107740585774,0.0,1.1119186046511629,0.0
Punjab,Barnala,31.521,75.4386,"rice,pearl_millet,chickpea,sugarcane",3.8316569446634086,4.57211333350064,3.141760554661384,65.7107740585774,0.0,1.1119186046511629,0.0
Punjab,S.A.S Nagar,31.2476,75.5062,"rice,pearl_millet,chickpea,sugarcane",3.8316569446634086,4.57211333350064,3.141760554661384,65.7107740585774,0.0,1.1119186046511629,0.0
Rajasthan,Pratapgarh,26.6992,74.6323,"rice,pearl_millet,chickpea,groundnut,sugarcane",0.0,0.0,0.0,0.0,0.0,0.0,0.0
Uttar Pradesh,Kasganj/Khansi Ram Nagar,26.7655,80.8293,"rice,pearl_millet,chickpea,groundnut,sugarcane",2.211306280297167,2.9430056802902462,1.6106571039070317,62.748715714840245,0.0,0.8248823524854875,0.0
Chhattisgarh,Bijapur,16.8302,75.71,"rice,groundnut",1.4767043887729834,1.2003248591928484,1.8010974416489594,11.136011639664884,0.0,1.2676032789707528,0.0
Chhattisgarh,Narayanpur,21.2976,81.4131,"rice,chickpea",1.4767043887729834,1.2003248591928484,1.8010974416489594,11.136011639664884,0.0,1.2676032789707528,0.0
Assam,Udalguri,25.8669,93.1756,"rice,chickpea,sugarcane",1.72021800653507,1.1760678723782674,1.7716224679094572,37.80143342460353,0.0,0.0,0.0
Assam,Baksa,25.7834,93.0408,"rice,chickpea,sugarcane",1.72021800653507,1.1760678723782674,1.7716224679094572,37.80143342460353,0.0,0.0,0.0
Assam,Chirang,25.9459,92.8269,"rice,chickpea,sugarcane",1.72021800653507,1.1760678723782674,1.7716224679094572,37.80143342460353,0.0,0.0,0.0
Tamil Nadu,Thiruppur,10.9158,78.5126,"rice,pearl_millet,chickpea,groundnut,sugarcane",3.2370418456349697,0.0,4.9041107370019486,106.6075500034572,0.0,2.0547826788130386,0.0
Jharkhand,Khunti,23.8292,85.077,"rice,chickpea",1.358370263469528,1.6657359104796794,1.63456193951208,40.38771706892791,0.0,1.0818472742075922,0.0
Jharkhand,Ramgadh,23.6766,85.256,"rice,chickpea",1.358370263469528,1.6657359104796794,1.63456193951208,40.38771706892791,0.0,1.0818472742075922,0.0
Karnataka,Yadagiri,15.481,76.1507,"rice,pearl_millet,chickpea,groundnut,sugarcane",2.694419359994436,0.8834127048459898,2.8972899753660815,87.89801544518777,0.0,0.7150491433005693,0.0
Uttar Pradesh,Amethi/C.S.M. Nagar,27.0793,80.6611,"rice,pearl_millet,chickpea,groundnut,sugarcane",2.211306280297167,2.9430056802902462,1.6106571039070317,62.748715714840245,0.0,0.8248823524854875,0.0
Maharashtra,Mumbai City,19.076,72.8777,rice,1.7596648971494138,1.4753457609261522,2.2886437053711397,81.27973521946655,0.0,1.1126249175202167,0.0
Assam,Kamrup (Metro),25.7318,92.6999,"rice,sugarcane",1.72021800653507,1.1760678723782674,1.7716224679094572,37.80143342460353,0.0,0.0,0.0
Punjab,Pathankot,31.2422,74.8926,"rice,chickpea,sugarcane",3.8316569446634086,4.57211333350064,3.141760554661384,65.7107740585774,0.0,1.1119186046511629,0.0
Uttar Pradesh,Sambhal,26.8431,81.043,"rice,pearl_millet,chickpea,groundnut,sugarcane",2.211306280297167,2.9430056802902462,1.6106571039070317,62.748715714840245,0.0,0.8248823524854875,0.0
Uttar Pradesh,Shamli,26.6809,81.2171,"rice,chickpea,sugarcane",2.211306280297167,2.9430056802902462,1.6106571039070317,62.748715714840245,0.0,0.8248823524854875,0.0
Uttar Pradesh,Hapur,26.4533,80.5213,"rice,pearl_millet,sugarcane",2.211306280297167,2.9430056802902462,1.6106571039070317,62.748715714840245,0.0,0.8248823524854875,0.0
Chhattisgarh,Balod,21.5069,81.8616,"rice,chickpea,sugarcane",1.4767043887729834,1.2003248591928484,1.8010974416489594,11.136011639664884,0.0,1.2676032789707528,0.0
Chhattisgarh,Baloda Bazar,21.4671,81.8009,"rice,pearl_millet,chickpea,groundnut,sugarcane",1.4767043887729834,1.2003248591928484,1.8010974416489594,11.136011639664884,0.0,1.2676032789707528,0.0
Chhattisgarh,Balrampur,21.0251,82.1852,"rice,chickpea,groundnut,sugarcane",1.4767043887729834,1.2003248591928484,1.8010974416489594,11.136011639664884,0.0,1.2676032789707528,0.0
Chhattisgarh,Bemetra,21.5781,82.0608,"rice,chickpea,groundnut,sugarcane",1.4767043887729834,1.2003248591928484,1.8010974416489594,11.136011639664884,0.0,1.2676032789707528,0.0
Chhattisgarh,Gariaband,21.0508,81.9563,"rice,pearl_millet,chickpea,groundnut,sugarcane",1.4767043887729834,1.2003248591928484,1.8010974416489594,11.136011639664884,0.0,1.2676032789707528,0.0
Chhattisgarh,Kondagaon,21.1397,81.4577,"rice,chickpea,groundnut,sugarcane",1.4767043887729834,1.2003248591928484,1.8010974416489594,11.136011639664884,0.0,1.2676032789707528,0.0
Chhattisgarh,Mungli,21.696,81.5029,"rice,chickpea,groundnut,sugarcane",1.4767043887729834,1.2003248591928484,1.8010974416489594,11.136011639664884,0.0,1.2676032789707528,0.0
Chhattisgarh,Sukma,21.7289,81.8121,"rice,sugarcane",1.4767043887729834,1.2003248591928484,1.8010974416489594,11.136011639664884,0.0,1.2676032789707528,0.0
Chhattisgarh,Surajpur,20.9638,81.908,"rice,chickpea,groundnut,sugarcane",1.4767043887729834,1.2003248591928484,1.8010974416489594,11.136011639664884,0.0,1.2676032789707528,0.0
Punjab,Fazilka,31.52,75.5734,"rice,pearl_millet,chickpea,sugarcane",3.8316569446634086,4.57211333350064,3.141760554661384,65.7107740585774,0.0,1.1119186046511629,0.0
Gujarat,Aravalli,23.3291,72.7302,"rice,pearl_millet,chickpea,groundnut",1.913217323168899,2.7930742134338216,1.5020852046900137,68.27796707160732,0.0,1.4768894272377961,0.0
Gujarat,Botad,23.2148,72.9206,"pearl_millet,chickpea,groundnut",1.913217323168899,2.7930742134338216,1.5020852046900137,68.27796707160732,0.0,1.4768894272377961,0.0
Gujarat,Chhota Udaipur,22.7722,72.5608,"rice,pearl_millet,chickpea,groundnut",1.913217323168899,2.7930742134338216,1.5020852046900137,68.27796707160732,0.0,1.4768894272377961,0.0
Gujarat,Devbhoomi Dwarka,22.7437,73.0591,"pearl_millet,chickpea,groundnut",1.913217323168899,2.7930742134338216,1.5020852046900137,68.27796707160732,0.0,1.4768894272377961,0.0
Gujarat,Gir Somnath,23.4666,72.1108,"pearl_millet,chickpea,groundnut,sugarcane",1.913217323168899,2.7930742134338216,1.5020852046900137,68.27796707160732,0.0,1.4768894272377961,0.0
Gujarat,Mahisagar,23.2281,72.9966,"rice,pearl_millet,chickpea,groundnut,sugarcane",1.913217323168899,2.7930742134338216,1.5020852046900137,68.27796707160732,0.0,1.4768894272377961,0.0
Gujarat,Morbi,22.7031,72.6393,"pearl_millet,chickpea,groundnut,sugarcane",1.913217323168899,2.7930742134338216,1.5020852046900137,68.27796707160732,0.0,1.4768894272377961,0.0
Madhya Pradesh,Agar Malwa,23.3889,78.1908,"pearl_millet,chickpea,groundnut,sugarcane",1.3164301673944963,2.476739864994916,2.1049222168891375,44.63208814725796,0.0,1.2705257216970058,0.0
Maharashtra,Palghar,19.9489,75.5112,"rice,chickpea,groundnut",1.7596648971494138,1.4753457609261522,2.2886437053711397,81.27973521946655,0.0,1.1126249175202167,0.0
West Bengal,Alipurduar,23.4112,88.3261,"rice,wheat,maize",2.6185488233728598,2.459235563114563,4.629779214209344,82.77030794576099,0.0,1.9808616750460908,0.0
